"year","election_type","electoral_rule","district","district_code","district_name","chinese_name","station_code","chinese_name_poll_station","name_poll_station","ps_gmaps_coords","lat","lon","votes_candidate_1","votes_candidate_2","votes_candidate_3","votes_candidate_4","votes_candidate_5","poli_ideo_1","poli_ideo_2","poli_ideo_3","poli_ideo_4","poli_ideo_5","party_allegiance_1","party_allegiance_2","party_allegiance_3","party_allegiance_4","party_allegiance_5"
"2019","District Council Election","First-past-the-post","Central & Western District","A01","CHUNG WAN","中環","A0101","H6 Conet","H6 Conet","22.2845363, 114.1547168","22.2845363"," 114.1547168",1392,920,NA,NA,NA,"pro-democracy",NA,NA,NA,NA,"THE DEMOCRATIC PARTY*",NA,NA,NA,NA
"2019","District Council Election","First-past-the-post","Central & Western District","A01","CHUNG WAN","中環","A0102","香港視覺藝術中心","Hong Kong Visual Arts Centre","22.2767383, 114.1593789","22.2767383"," 114.1593789",226,399,NA,NA,NA,"pro-democracy",NA,NA,NA,NA,"THE DEMOCRATIC PARTY*",NA,NA,NA,NA
"2019","District Council Election","First-past-the-post","Central & Western District","A02","MID LEVELS EAST","半山東","A0201","高主教書院","Raimondi College","22.2782914, 114.1533874","22.2782914"," 114.1533874",1993,2672,NA,NA,NA,"pro-establishment","pro-democracy",NA,NA,NA,"DAB*","THE DEMOCRATIC PARTY",NA,NA,NA
"2019","District Council Election","First-past-the-post","Central & Western District","A03","CASTLE ROAD","衛城","A0301","香港真光幼稚園(堅道)","Hong Kong True Light Kindergarten (Caine Road)","22.281594, 114.151889","22.281594"," 114.151889",1947,2022,NA,NA,NA,"pro-democracy","pro-establishment",NA,NA,NA,"THE DEMOCRATIC PARTY","LIBERAL PARTY",NA,NA,NA
"2019","District Council Election","First-past-the-post","Central & Western District","A03","CASTLE ROAD","衛城","A0302","英華女學校","Ying Wa Girls’ School","22.2827187, 114.1472685","22.2827187"," 114.1472685",722,537,NA,NA,NA,"pro-democracy","pro-establishment",NA,NA,NA,"THE DEMOCRATIC PARTY","LIBERAL PARTY",NA,NA,NA
"2019","District Council Election","First-past-the-post","Central & Western District","A04","PEAK","山頂","A0401","香港公園體育館","Hong Kong Park Sports Centre","22.2772634, 114.159326","22.2772634"," 114.159326",895,1924,NA,NA,NA,NA,"pro-establishment",NA,NA,NA,NA,"LIBERAL PARTY",NA,NA,NA
"2019","District Council Election","First-past-the-post","Central & Western District","A04","PEAK","山頂","A0402","德瑞國際學校山頂校舍","German Swiss International School Peak Campus","22.265971, 114.1615628","22.265971"," 114.1615628",211,498,NA,NA,NA,NA,"pro-establishment",NA,NA,NA,NA,"LIBERAL PARTY",NA,NA,NA
"2019","District Council Election","First-past-the-post","Central & Western District","A05","UNIVERSITY","大學","A0501","西營盤社區綜合大樓社區會堂","Sai Ying Pun Community Complex Community Hall","22.28483, 114.144069","22.28483"," 114.144069",127,3135,2843,NA,NA,NA,NA,NA,NA,NA,NA,NA,NA,NA,NA
"2019","District Council Election","First-past-the-post","Central & Western District","A06","KWUN LUNG","觀龍","A0601","士美非路體育館","Smithfield Sports Centre","22.2816862, 114.1286074","22.2816862"," 114.1286074",2970,138,3195,NA,NA,"pro-establishment","pro-democracy",NA,NA,NA,"DAB*","HKVSA",NA,NA,NA
"2019","District Council Election","First-past-the-post","Central & Western District","A07","KENNEDY TOWN & MOUNT
DAVIS","堅摩","A0701","香港基督教女青年會西環綜合社會服務處","HKYWCA Western District Integrated Social Service Centre","22.2819261, 114.1258015","22.2819261"," 114.1258015",3312,53,2206,NA,NA,NA,NA,NA,NA,NA,NA,NA,NA,NA,NA
"2019","District Council Election","First-past-the-post","Central & Western District","A08","SAI WAN","西環","A0801","堅尼地城社區綜合大樓 (綜合用途室)","Kennedy Town Community Complex (Multi-purpose Function Room)","22.281864, 114.129054","22.281864"," 114.129054",2494,40,3289,NA,NA,"pro-establishment",NA,"pro-democracy",NA,NA,"DAB*",NA,"HKVSA",NA,NA
"2019","District Council Election","First-past-the-post","Central & Western District","A09","BELCHER","寶翠","A0901","維多利亞 (寶翠園) 幼稚園","Victoria (Belcher) Kindergarten","22.2853636, 114.1339339","22.2853636"," 114.1339339",2432,46,2169,NA,NA,"pro-democracy",NA,NA,NA,NA,"THE DEMOCRATIC PARTY",NA,NA,NA,NA
"2019","District Council Election","First-past-the-post","Central & Western District","A09","BELCHER","寶翠","A0902","香港聖公會西環長者綜合服務中心","HKSKH Western District Elderly Community Centre","22.2856014, 114.1349028","22.2856014"," 114.1349028",1570,30,1352,NA,NA,"pro-democracy",NA,NA,NA,NA,"THE DEMOCRATIC PARTY",NA,NA,NA,NA
"2019","District Council Election","First-past-the-post","Central & Western District","A10","SHEK TONG TSUI","石塘咀","A1001","石塘咀體育館","Shek Tong Tsui Sports Centre","22.2855473, 114.136225","22.2855473"," 114.136225",2487,3073,NA,NA,NA,NA,"pro-democracy",NA,NA,NA,NA,"POWER FOR DEMOCRACY",NA,NA,NA
"2019","District Council Election","First-past-the-post","Central & Western District","A11","SAI YING PUN","西營盤","A1101","中西區及離島區社會保障辦事處","Central and Western / Islands Social Security Field Unit","22.2877632, 114.1416827","22.2877632"," 114.1416827",1813,1431,NA,NA,NA,"pro-democracy","pro-establishment",NA,NA,NA,"POWER FOR DEMOCRACY","DAB*",NA,NA,NA
"2019","District Council Election","First-past-the-post","Central & Western District","A11","SAI YING PUN","西營盤","A1102","東華三院樂群地區支援中心","TWGHs Lok Kwan District Support Centre","22.2866532, 114.1394239","22.2866532"," 114.1394239",921,771,NA,NA,NA,"pro-democracy","pro-establishment",NA,NA,NA,"POWER FOR DEMOCRACY","DAB*",NA,NA,NA
"2019","District Council Election","First-past-the-post","Central & Western District","A12","SHEUNG WAN","上環","A1201","上環郵政局","Sheung Wan Post Office","22.286738, 114.1503068","22.286738"," 114.1503068",1900,2781,NA,NA,NA,"pro-establishment","pro-democracy",NA,NA,NA,"FTU","THE DEMOCRATIC PARTY",NA,NA,NA
"2019","District Council Election","First-past-the-post","Central & Western District","A13","TUNG WAH","東華","A1301","新會商會學校","San Wui Commercial Society School","22.2840272, 114.1488853","22.2840272"," 114.1488853",676,1025,NA,NA,NA,"pro-establishment","pro-democracy",NA,NA,NA,"DAB*","THE DEMOCRATIC PARTY",NA,NA,NA
"2019","District Council Election","First-past-the-post","Central & Western District","A13","TUNG WAH","東華","A1302","聖公會聖馬太小學","SKH St. Matthew's Primary School","22.285738, 114.14667","22.285738"," 114.14667",871,1378,NA,NA,NA,"pro-establishment","pro-democracy",NA,NA,NA,"DAB*","THE DEMOCRATIC PARTY",NA,NA,NA
"2019","District Council Election","First-past-the-post","Central & Western District","A14","CENTRE STREET","正街","A1401","基督教香港崇真會救恩堂及救恩學校","Tsung Tsin Mission of Hong Kong Kau Yan Church and Kau Yan School","22.285343, 114.140813","22.285343"," 114.140813",2909,2030,NA,NA,NA,"pro-democracy",NA,NA,NA,NA,"THE DEMOCRATIC PARTY",NA,NA,NA,NA
"2019","District Council Election","First-past-the-post","Central & Western District","A15","WATER STREET","水街","A1501","李陞小學","Li Sing Primary School","22.2853334, 114.1398624","22.2853334"," 114.1398624",2095,3093,NA,NA,NA,"pro-establishment","pro-democracy",NA,NA,NA,"DAB*","HKVSA",NA,NA,NA
"2019","District Council Election","First-past-the-post","Wan Chai District","B01","HENNESSY","軒尼詩","B0101","軒尼詩道官立小學","Hennessy Road Government Primary School","22.2775083, 114.1756544","22.2775083"," 114.1756544",1373,845,1033,NA,NA,NA,NA,NA,NA,NA,NA,NA,NA,NA,NA
"2019","District Council Election","First-past-the-post","Wan Chai District","B02","OI KWAN","愛群","B0201","鄧肇堅維多利亞官立中學","Tang Shiu Kin Victoria Government Secondary School","22.2768753, 114.1791412","22.2768753"," 114.1791412",2363,1750,NA,NA,NA,NA,"pro-establishment",NA,NA,NA,NA,"DAB",NA,NA,NA
"2019","District Council Election","First-past-the-post","Wan Chai District","B03","CANAL ROAD","鵝頸","B0301","香港婦協郭得勝服務中心","Hong Kong Federation of Women T.S. Kwok Service Centre","22.2801386, 114.1807377","22.2801386"," 114.1807377",1891,1383,NA,NA,NA,NA,"pro-establishment",NA,NA,NA,NA,"DAB",NA,NA,NA
"2019","District Council Election","First-past-the-post","Wan Chai District","B04","CAUSEWAY BAY","銅鑼灣","B0401","灣仔區文娛康樂體育會","Wan Chai District Arts, Cultural, Recreational & Sports Association","22.2798606, 114.1890263","22.2798606"," 114.1890263",1572,1918,NA,NA,NA,NA,NA,NA,NA,NA,NA,NA,NA,NA,NA
"2019","District Council Election","First-past-the-post","Wan Chai District","B05","VICTORIA PARK","維園","B0501","皇仁書院","Queen’s College","22.2813209, 114.1914514","22.2813209"," 114.1914514",2502,2125,NA,NA,NA,"pro-democracy","pro-establishment",NA,NA,NA,"HKVSA","DAB",NA,NA,NA
"2019","District Council Election","First-past-the-post","Wan Chai District","B06","TIN HAU","天后","B0601","保良局建造商會學校","HKCA Po Leung Kuk School","22.2843614, 114.1937478","22.2843614"," 114.1937478",1385,1046,NA,NA,NA,NA,NA,NA,NA,NA,NA,NA,NA,NA,NA
"2019","District Council Election","First-past-the-post","Wan Chai District","B06","TIN HAU","天后","B0602","勵德邨邨榮樓有蓋停車場","Covered Carpark of Tsuen Wing Lau, Lai Tak Tsuen","22.2775917, 114.1947926","22.2775917"," 114.1947926",1514,1577,NA,NA,NA,NA,NA,NA,NA,NA,NA,NA,NA,NA,NA
"2019","District Council Election","First-past-the-post","Wan Chai District","B07","TAI HANG","大坑","B0701","港灣婦女會","Wan Chai District Women's Association","22.2792495, 114.1894737","22.2792495"," 114.1894737",1433,2340,NA,NA,NA,NA,NA,NA,NA,NA,NA,NA,NA,NA,NA
"2019","District Council Election","First-past-the-post","Wan Chai District","B08","JARDINE'S LOOKOUT","渣甸山","B0801","中華基督教會公理高中書院","CCC Kung Lee College","22.2747116, 114.1935933","22.2747116"," 114.1935933",1355,2570,464,NA,NA,NA,"pro-establishment",NA,NA,NA,NA,"LIBERAL PARTY",NA,NA,NA
"2019","District Council Election","First-past-the-post","Wan Chai District","B09","BROADWOOD","樂活","B0901","禮頓山社區會堂","Leighton Hill Community Hall","22.2753088, 114.1832747","22.2753088"," 114.1832747",2121,1887,NA,NA,NA,NA,NA,NA,NA,NA,NA,NA,NA,NA,NA
"2019","District Council Election","First-past-the-post","Wan Chai District","B10","HAPPY VALLEY","跑馬地","B1001","黃泥涌體育館","Wong Nai Chung Sports Centre","22.2689269, 114.1857353","22.2689269"," 114.1857353",1954,207,1805,NA,NA,"pro-democracy",NA,NA,NA,NA,"POWER FOR DEMOCRACY",NA,NA,NA,NA
"2019","District Council Election","First-past-the-post","Wan Chai District","B11","STUBBS ROAD","司徒拔道","B1101","瑪利曼中學","Marymount Secondary School","22.2637905, 114.1904276","22.2637905"," 114.1904276",1621,1277,NA,NA,NA,NA,NA,NA,NA,NA,NA,NA,NA,NA,NA
"2019","District Council Election","First-past-the-post","Wan Chai District","B11","STUBBS ROAD","司徒拔道","B1102","香港青少年服務處成和青少年中心","Hong Kong Children & Youth Services Sing Woo Children & Youth Centre","22.2673184, 114.1866082","22.2673184"," 114.1866082",287,314,NA,NA,NA,NA,NA,NA,NA,NA,NA,NA,NA,NA,NA
"2019","District Council Election","First-past-the-post","Wan Chai District","B12","SOUTHORN","修頓","B1201","灣仔郵政局","Wan Chai Post Office","22.276022, 114.1751471","22.276022"," 114.1751471",1652,1790,NA,NA,NA,NA,NA,NA,NA,NA,NA,NA,NA,NA,NA
"2019","District Council Election","First-past-the-post","Wan Chai District","B13","TAI FAT HAU","大佛口","B1301","循道衛理中心","Methodist Centre","22.2774016, 114.168877","22.2774016"," 114.168877",1625,1723,NA,NA,NA,"pro-establishment",NA,NA,NA,NA,"DAB",NA,NA,NA,NA
"2019","District Council Election","First-past-the-post","Eastern District","C01","TAI KOO SHING WEST","太古城西","C0101","東區少年警訊會所","Eastern District JPC Club House","22.286426530699266, 114.21412738549557","22.286426530699266"," 114.21412738549557",1714,2846,NA,NA,NA,"pro-establishment","pro-democracy",NA,NA,NA,"BPA","POWER FOR DEMOCRACY",NA,NA,NA
"2019","District Council Election","First-past-the-post","Eastern District","C01","TAI KOO SHING WEST","太古城西","C0102","太古城郵政局","Tai Koo Shing Post Office","22.2866974, 114.2187656","22.2866974"," 114.2187656",879,1544,NA,NA,NA,"pro-establishment","pro-democracy",NA,NA,NA,"BPA","POWER FOR DEMOCRACY",NA,NA,NA
"2019","District Council Election","First-past-the-post","Eastern District","C02","TAI KOO SHING EAST","太古城東","C0201","聖安娜中英文幼稚園","St. Anna Anglo-Chinese Kindergarten","22.2863508, 114.2204634","22.2863508"," 114.2204634",1424,2127,NA,NA,NA,"pro-democracy","pro-democracy",NA,NA,NA,"NEW PEOPLE’S PARTY","POWER FOR DEMOCRACY",NA,NA,NA
"2019","District Council Election","First-past-the-post","Eastern District","C02","TAI KOO SHING EAST","太古城東","C0202","地利亞(加拿大)學校","Delia School of Canada","22.2857693, 114.2182945","22.2857693"," 114.2182945",1682,2721,NA,NA,NA,"pro-democracy","pro-democracy",NA,NA,NA,"NEW PEOPLE’S PARTY","POWER FOR DEMOCRACY",NA,NA,NA
"2019","District Council Election","First-past-the-post","Eastern District","C03","LEI KING WAN","鯉景灣","C0301","港島東體育館","Island East Sports Centre","22.2846902, 114.2222682","22.2846902"," 114.2222682",3098,4144,NA,NA,NA,NA,"pro-democracy",NA,NA,NA,NA,"POWER FOR DEMOCRACY",NA,NA,NA
"2019","District Council Election","First-past-the-post","Eastern District","C04","SAI WAN HO","西灣河","C0401","西灣河體育館","Sai Wan Ho Sports Centre","22.282238, 114.2227325","22.282238"," 114.2227325",4323,2530,NA,NA,NA,"pro-democracy","pro-democracy",NA,NA,NA,"LABOUR PARTY","NEW PEOPLE’S PARTY",NA,NA,NA
"2019","District Council Election","First-past-the-post","Eastern District","C05","ALDRICH BAY","愛秩序灣","C0501","中華基督教會基灣小學 (愛蝶灣)","CCC Kei Wan Primary School (Aldrich Bay)","22.28133, 114.2259635","22.28133"," 114.2259635",3771,86,4600,NA,NA,"pro-establishment",NA,"pro-democracy",NA,NA,"DAB",NA,"THE DEMOCRATIC PARTY",NA,NA
"2019","District Council Election","First-past-the-post","Eastern District","C06","SHAUKEIWAN","筲箕灣","C0601","筲箕灣郵政局","Shau Kei Wan Post Office","22.279049, 114.229382","22.279049"," 114.229382",1903,3215,NA,NA,NA,"pro-establishment",NA,NA,NA,NA,"DAB",NA,NA,NA,NA
"2019","District Council Election","First-past-the-post","Eastern District","C07","A KUNG NGAM","阿公岩","C0701","愛秩序灣官立小學","Aldrich Bay Government Primary School","22.2824663, 114.2285666","22.2824663"," 114.2285666",2394,1841,180,NA,NA,"pro-democracy",NA,NA,NA,NA,"POWER FOR DEMOCRACY",NA,NA,NA,NA
"2019","District Council Election","First-past-the-post","Eastern District","C07","A KUNG NGAM","阿公岩","C0702","筲箕灣官立小學","Shau Kei Wan Government Primary School","22.28111, 114.230911","22.28111"," 114.230911",1810,1333,417,NA,NA,"pro-democracy",NA,NA,NA,NA,"POWER FOR DEMOCRACY",NA,NA,NA,NA
"2019","District Council Election","First-past-the-post","Eastern District","C08","HENG FA CHUEN","杏花邨","C0801","嶺南中學","Lingnan Secondary School","22.2794522, 114.2392248","22.2794522"," 114.2392248",5323,4114,NA,NA,NA,NA,"pro-establishment",NA,NA,NA,NA,"FTU",NA,NA,NA
"2019","District Council Election","First-past-the-post","Eastern District","C09","TSUI WAN","翠灣","C0901","聖公會李福慶中學","SKH Li Fook Hing Secondary School","22.2670628, 114.240969","22.2670628"," 114.240969",2847,3569,NA,NA,NA,"pro-establishment",NA,NA,NA,NA,"DAB",NA,NA,NA,NA
"2019","District Council Election","First-past-the-post","Eastern District","C10","YAN LAM","欣藍","C1001","中華基金中學","The Chinese Foundation Secondary School","22.2644483, 114.2496759","22.2644483"," 114.2496759",3982,3543,106,NA,NA,"pro-democracy",NA,NA,NA,NA,"POWER FOR DEMOCRACY",NA,NA,NA,NA
"2019","District Council Election","First-past-the-post","Eastern District","C11","SIU SAI WAN","小西灣","C1101","小西灣社區會堂","Siu Sai Wan Community Hall","22.2636661, 114.2492752","22.2636661"," 114.2492752",288,3212,2485,NA,NA,NA,"pro-democracy","pro-establishment",NA,NA,NA,"POWER FOR DEMOCRACY","FTU",NA,NA
"2019","District Council Election","First-past-the-post","Eastern District","C12","KING YEE","景怡","C1201","嶺南衡怡紀念中學","Lingnan Hang Yee Memorial Secondary School","22.2635741, 114.2512007","22.2635741"," 114.2512007",623,3079,4936,NA,NA,NA,"pro-establishment",NA,NA,NA,NA,"FTU",NA,NA,NA
"2019","District Council Election","First-past-the-post","Eastern District","C13","WAN TSUI","環翠","C1301","救世軍中原慈善基金學校","The Salvation Army Centaline Charity Fund School","22.2620031, 114.2375015","22.2620031"," 114.2375015",3412,39,2866,NA,NA,"pro-democracy",NA,"pro-establishment",NA,NA,"POWER FOR DEMOCRACY",NA,"DAB",NA,NA
"2019","District Council Election","First-past-the-post","Eastern District","C14","FEI TSUI","翡翠","C1401","文理書院 (香港)","Cognitio College (Hong Kong)","22.262039, 114.2337094","22.262039"," 114.2337094",3591,2742,NA,NA,NA,"pro-democracy","pro-establishment",NA,NA,NA,"CIVIC PARTY","FTU",NA,NA,NA
"2019","District Council Election","First-past-the-post","Eastern District","C15","MOUNT PARKER","柏架山","C1501","鰂魚涌體育館","Quarry Bay Sports Centre","22.2837167, 114.2117902","22.2837167"," 114.2117902",2491,2664,NA,NA,NA,"pro-democracy","pro-establishment",NA,NA,NA,"POWER FOR DEMOCRACY","DAB",NA,NA,NA
"2019","District Council Election","First-past-the-post","Eastern District","C16","BRAEMAR HILL","寶馬山","C1601","閩僑中學","Man Kiu College","22.2873207, 114.1999941","22.2873207"," 114.1999941",2522,3111,NA,NA,NA,NA,"pro-establishment",NA,NA,NA,NA,"LIBERAL PARTY",NA,NA,NA
"2019","District Council Election","First-past-the-post","Eastern District","C17","FORTRESS HILL","炮台山","C1701","金文泰中學","Clementi Secondary School","22.2875667, 114.1947513","22.2875667"," 114.1947513",2634,3596,NA,NA,NA,NA,"pro-democracy",NA,NA,NA,NA,"POWER FOR DEMOCRACY",NA,NA,NA
"2019","District Council Election","First-past-the-post","Eastern District","C18","CITY GARDEN","城市花園","C1801","銅鑼灣社區中心","Causeway Bay Community Centre","22.2884682, 114.1910849","22.2884682"," 114.1910849",2557,2806,591,NA,NA,NA,NA,NA,NA,NA,NA,NA,NA,NA,NA
"2019","District Council Election","First-past-the-post","Eastern District","C19","PROVIDENT","和富","C1901","渣華道體育館","Java Road Sports Centre","22.2923352, 114.1993332","22.2923352"," 114.1993332",3229,3181,90,NA,NA,"pro-establishment","pro-democracy",NA,NA,NA,"FTU","POWER FOR DEMOCRACY",NA,NA,NA
"2019","District Council Election","First-past-the-post","Eastern District","C20","FORT STREET","堡壘","C2001","北角衞理小學舊址","Former Site of North Point Methodist Primary School","22.2897786, 114.2052878","22.2897786"," 114.2052878",2464,2405,NA,NA,NA,"pro-democracy","pro-establishment",NA,NA,NA,"POWER FOR DEMOCRACY","DAB",NA,NA,NA
"2019","District Council Election","First-past-the-post","Eastern District","C21","KAM PING","錦屏","C2101","香港遊樂場協會賽馬會北角港運城青少年綜合服務中心","HKPA Jockey Club North Point Island Place Integrated Service Centre for Children and Youth","22.2909729, 114.2026552","22.2909729"," 114.2026552",3027,3113,NA,NA,NA,"pro-establishment","pro-democracy",NA,NA,NA,"DAB","CIVIC PARTY",NA,NA,NA
"2019","District Council Election","First-past-the-post","Eastern District","C22","TANNER","丹拿","C2201","啟基學校 (港島)","Chan's Creative School (Hong Kong Island)","22.2920017, 114.2026458","22.2920017"," 114.2026458",2899,3947,NA,NA,NA,"pro-establishment","pro-democracy",NA,NA,NA,"LIBERAL PARTY","CIVIC PARTY",NA,NA,NA
"2019","District Council Election","First-past-the-post","Eastern District","C23","HEALTHY VILLAGE","健康村","C2301","丹拿山循道學校","Chinese Methodist School, Tanner Hill","22.2907361, 114.2051491","22.2907361"," 114.2051491",2609,2971,NA,NA,NA,"pro-establishment","pro-democracy",NA,NA,NA,"DAB","POWER FOR DEMOCRACY",NA,NA,NA
"2019","District Council Election","First-past-the-post","Eastern District","C24","QUARRY BAY","鰂魚涌","C2401","北角官立小學","North Point Government Primary School","22.2888253, 114.2094857","22.2888253"," 114.2094857",2176,2700,NA,NA,NA,"pro-establishment","pro-democracy",NA,NA,NA,"DAB","POWER FOR DEMOCRACY*",NA,NA,NA
"2019","District Council Election","First-past-the-post","Eastern District","C25","NAM FUNG","南豐","C2501","鰂魚涌社區會堂","Quarry Bay Community Hall","22.2837398, 114.2139882","22.2837398"," 114.2139882",2275,4315,NA,NA,NA,"pro-establishment","pro-democracy",NA,NA,NA,"BPA","THE DEMOCRATIC PARTY",NA,NA,NA
"2019","District Council Election","First-past-the-post","Eastern District","C26","KORNHILL","康怡","C2601","佛教中華康山學校","Buddhist Chung Wah Kornhill Primary School","22.2810071, 114.2140138","22.2810071"," 114.2140138",4127,2854,NA,NA,NA,"pro-democracy","pro-establishment",NA,NA,NA,"CIVIC PARTY","NEW PEOPLE'S PARTY",NA,NA,NA
"2019","District Council Election","First-past-the-post","Eastern District","C27","KORNHILL GARDEN","康山","C2701","太古小學","Taikoo Primary School","22.2839559, 114.2148046","22.2839559"," 114.2148046",2564,3727,NA,NA,NA,"pro-democracy","pro-democracy",NA,NA,NA,"NEW PEOPLE’S PARTY","CIVIC PARTY",NA,NA,NA
"2019","District Council Election","First-past-the-post","Eastern District","C28","HING TUNG","興東","C2801","青松興東幼稚園","Ching Chung Hing Tung Kindergarten","22.281589, 114.219424","22.281589"," 114.219424",2050,2611,NA,NA,NA,"pro-establishment",NA,NA,NA,NA,"FTU",NA,NA,NA,NA
"2019","District Council Election","First-past-the-post","Eastern District","C28","HING TUNG","興東","C2802","伊斯蘭徐錦享紀念幼稚園","Islamic Abu Bakar Chui Memorial Kindergarten","22.2800448, 114.2185082","22.2800448"," 114.2185082",1882,2778,NA,NA,NA,"pro-establishment",NA,NA,NA,NA,"FTU",NA,NA,NA,NA
"2019","District Council Election","First-past-the-post","Eastern District","C29","LOWER YIU TUNG","下耀東","C2901","勵志會梁李秀娛紀念小學","The Endeavourers Leung Lee Sau Yu Memorial Primary School","22.2765363, 114.2267898","22.2765363"," 114.2267898",1894,1430,NA,NA,NA,"pro-democracy","pro-establishment",NA,NA,NA,"LABOUR PARTY","DAB",NA,NA,NA
"2019","District Council Election","First-past-the-post","Eastern District","C29","LOWER YIU TUNG","下耀東","C2902","筲箕灣街坊福利事務促進會有限公司","Shau Kei Wan Kai-fong Welfare Advancement Association Ltd.","22.2800168, 114.2259789","22.2800168"," 114.2259789",1877,1027,NA,NA,NA,"pro-democracy","pro-establishment",NA,NA,NA,"LABOUR PARTY","DAB",NA,NA,NA
"2019","District Council Election","First-past-the-post","Eastern District","C30","UPPER YIU TUNG","上耀東","C3001","新家園協會賽馬會港島東服務中心","New Home Association Jockey Club Hong Kong East Service Centre","22.3118841, 114.2244217","22.3118841"," 114.2244217",3124,3492,NA,NA,NA,"pro-establishment","pro-democracy",NA,NA,NA,"FTU","THE DEMOCRATIC PARTY",NA,NA,NA
"2019","District Council Election","First-past-the-post","Eastern District","C31","HING MAN","興民","C3101","粵南信義會腓力堂興民幼兒學園","Lutheran Philip House Hing Man Nursery School","22.2671825, 114.2329699","22.2671825"," 114.2329699",1354,1234,NA,NA,NA,NA,"pro-establishment",NA,NA,NA,NA,"DAB",NA,NA,NA
"2019","District Council Election","First-past-the-post","Eastern District","C31","HING MAN","興民","C3102","路德會聖雅各幼稚園","St. James Lutheran Kindergarten","22.262189, 114.234975","22.262189"," 114.234975",1943,1879,NA,NA,NA,NA,"pro-establishment",NA,NA,NA,NA,"DAB",NA,NA,NA
"2019","District Council Election","First-past-the-post","Eastern District","C32","LOK HONG","樂康","C3201","天主教明德學校","Meng Tak Catholic School","22.2683369, 114.2361529","22.2683369"," 114.2361529",2361,3008,NA,NA,NA,NA,"pro-democracy",NA,NA,NA,NA,"LEAGUE OF SOCIAL
DEMOCRATS",NA,NA,NA
"2019","District Council Election","First-past-the-post","Eastern District","C32","LOK HONG","樂康","C3202","循道愛華村服務中心社會福利部 - 愛華青少年綜合服務隊 (愛華服務處)","Methodist Epworth Village Community Centre, Social Welfare - Epworth Integrated Youth Team (Epworth Base)","22.2789346, 114.2213069","22.2789346"," 114.2213069",439,555,NA,NA,NA,NA,"pro-democracy",NA,NA,NA,NA,"LEAGUE OF SOCIAL
DEMOCRATS",NA,NA,NA
"2019","District Council Election","First-past-the-post","Eastern District","C33","TSUI TAK","翠德","C3301","柴灣母嬰健康院","Chai Wan Maternal and Child Health Centre","22.263917, 114.236328","22.263917"," 114.236328",2994,2612,NA,NA,NA,NA,"pro-establishment",NA,NA,NA,NA,"LIBERAL PARTY",NA,NA,NA
"2019","District Council Election","First-past-the-post","Eastern District","C34","YUE WAN","漁灣","C3401","漁灣社區會堂","Yue Wan Community Hall","22.266121, 114.2413949","22.266121"," 114.2413949",30,196,3814,2374,NA,NA,NA,NA,"pro-establishment",NA,NA,NA,NA,"DAB",NA
"2019","District Council Election","First-past-the-post","Eastern District","C35","KAI HIU","佳曉","C3501","香港中華基督教青年會 - 柴灣會所","Chinese YMCA of Hong Kong - Chai Wan Centre","22.2615855, 114.2486042","22.2615855"," 114.2486042",1934,2207,460,NA,NA,"pro-establishment",NA,NA,NA,NA,"DAB",NA,NA,NA,NA
"2019","District Council Election","First-past-the-post","Eastern District","C35","KAI HIU","佳曉","C3502","衞理中學","The Methodist Church H.K. Wesley College","22.2640836, 114.2513471","22.2640836"," 114.2513471",778,993,121,NA,NA,"pro-establishment",NA,NA,NA,NA,"DAB",NA,NA,NA,NA
"2019","District Council Election","First-past-the-post","Southern District","D01","ABERDEEN","香港仔","D0101","香港仔體育館","Aberdeen Sports Centre","22.2491927, 114.1544143","22.2491927"," 114.1544143",5001,3020,31,NA,NA,"pro-democracy",NA,NA,NA,NA,"POWER FOR DEMOCRACY",NA,NA,NA,NA
"2019","District Council Election","First-past-the-post","Southern District","D02","AP LEI CHAU ESTATE","鴨脷洲邨","D0201","鴨脷洲社區會堂","Ap Lei Chau Community Hall","22.2451077, 114.1501885","22.2451077"," 114.1501885",3274,3092,NA,NA,NA,NA,"pro-democracy",NA,NA,NA,NA,"THE DEMOCRATIC PARTY",NA,NA,NA
"2019","District Council Election","First-past-the-post","Southern District","D03","AP LEI CHAU NORTH","鴨脷洲北","D0301","鴨脷洲體育館","Ap Lei Chau Sports Centre","22.2445, 114.1554216","22.2445"," 114.1554216",3136,1932,NA,NA,NA,"pro-democracy",NA,NA,NA,NA,"THE DEMOCRATIC PARTY",NA,NA,NA,NA
"2019","District Council Election","First-past-the-post","Southern District","D04","LEI TUNG I","利東一","D0401","聖伯多祿天主教小學","St. Peter's Catholic Primary School","22.2422486, 114.1565107","22.2422486"," 114.1565107",2258,3827,NA,NA,NA,"pro-establishment","pro-democracy",NA,NA,NA,"DAB","THE DEMOCRATIC PARTY",NA,NA,NA
"2019","District Council Election","First-past-the-post","Southern District","D05","LEI TUNG II","利東二","D0501","利東社區會堂","Lei Tung Community Hall","22.241668, 114.1546182","22.241668"," 114.1546182",4737,2801,NA,NA,NA,"pro-democracy","pro-establishment",NA,NA,NA,"THE DEMOCRATIC PARTY","DAB",NA,NA,NA
"2019","District Council Election","First-past-the-post","Southern District","D06","SOUTH HORIZONS EAST","海怡東","D0601","香港南區官立小學","Hong Kong Southern District Government Primary School","22.2434947, 114.1504844","22.2434947"," 114.1504844",2960,3750,NA,NA,NA,NA,"pro-democracy",NA,NA,NA,NA,"CIVIC PARTY",NA,NA,NA
"2019","District Council Election","First-past-the-post","Southern District","D07","SOUTH HORIZONS WEST","海怡西","D0701","海怡社區中心","South Horizons Neighbourhood Community Centre","22.2430353, 114.1482902","22.2430353"," 114.1482902",4164,3236,NA,NA,NA,"pro-democracy","pro-democracy",NA,NA,NA,"POWER FOR DEMOCRACY*","NEW PEOPLE’S PARTY",NA,NA,NA
"2019","District Council Election","First-past-the-post","Southern District","D08","WAH KWAI","華貴","D0801","華貴社區會堂","Wah Kwai Community Hall","22.2500628, 114.1383451","22.2500628"," 114.1383451",4540,3111,NA,NA,NA,"pro-democracy","pro-establishment",NA,NA,NA,"THE DEMOCRATIC PARTY","DAB",NA,NA,NA
"2019","District Council Election","First-past-the-post","Southern District","D09","WAH FU SOUTH","華富南","D0901","明愛莊月明中學","Caritas Chong Yuet Ming Secondary School","22.252922, 114.1352518","22.252922"," 114.1352518",2478,3121,NA,NA,NA,"pro-establishment","pro-democracy",NA,NA,NA,"DAB","THE DEMOCRATIC PARTY",NA,NA,NA
"2019","District Council Election","First-past-the-post","Southern District","D10","WAH FU NORTH","華富北","D1001","東華三院鶴山學校","TWGHs Hok Shan School","22.2526464, 114.1381952","22.2526464"," 114.1381952",2366,3751,NA,NA,NA,"pro-establishment","pro-democracy",NA,NA,NA,"DAB","THE DEMOCRATIC PARTY",NA,NA,NA
"2019","District Council Election","First-past-the-post","Southern District","D11","POKFULAM","薄扶林","D1101","漁光道體育館","Yue Kwong Road Sports Centre","22.2504444, 114.1569344","22.2504444"," 114.1569344",35,300,644,NA,NA,NA,"pro-establishment",NA,NA,NA,NA,"DAB",NA,NA,NA
"2019","District Council Election","First-past-the-post","Southern District","D11","POKFULAM","薄扶林","D1102","上碧瑤灣遊樂場","Playground of Upper Baguio Villa","22.2616196, 114.1340243","22.2616196"," 114.1340243",85,657,1027,NA,NA,NA,"pro-establishment",NA,NA,NA,NA,"DAB",NA,NA,NA
"2019","District Council Election","First-past-the-post","Southern District","D11","POKFULAM","薄扶林","D1103","數碼港郵政局","Cyberport Post Office","22.2617915, 114.129956","22.2617915"," 114.129956",44,883,876,NA,NA,NA,"pro-establishment",NA,NA,NA,NA,"DAB",NA,NA,NA
"2019","District Council Election","First-past-the-post","Southern District","D12","CHI FU","置富","D1201","展亮技能發展中心(薄扶林)","Shine Skills Centre (Pokfulam)","22.260187, 114.135993","22.260187"," 114.135993",203,278,NA,NA,NA,NA,"pro-democracy",NA,NA,NA,NA,"POWER FOR DEMOCRACY",NA,NA,NA
"2019","District Council Election","First-past-the-post","Southern District","D12","CHI FU","置富","D1202","置富南區會堂","Chi Fu Community Hall","22.2578562, 114.1387601","22.2578562"," 114.1387601",2541,4014,NA,NA,NA,NA,"pro-democracy",NA,NA,NA,NA,"POWER FOR DEMOCRACY",NA,NA,NA
"2019","District Council Election","First-past-the-post","Southern District","D13","TIN WAN","田灣","D1301","明愛賽馬會香港仔服務中心","Caritas Jockey Club Aberdeen Social Centre","22.2483068, 114.1524398","22.2483068"," 114.1524398",1236,673,NA,NA,NA,"pro-democracy",NA,NA,NA,NA,"POWER FOR DEMOCRACY",NA,NA,NA,NA
"2019","District Council Election","First-past-the-post","Southern District","D13","TIN WAN","田灣","D1302","聖公會田灣始南小學","SKH Tin Wan Chi Nam Primary School","22.25175, 114.1510925","22.25175"," 114.1510925",2955,1929,NA,NA,NA,"pro-democracy",NA,NA,NA,NA,"POWER FOR DEMOCRACY",NA,NA,NA,NA
"2019","District Council Election","First-past-the-post","Southern District","D14","SHEK YUE","石漁","D1401","香港仔聖伯多祿天主教小學","Aberdeen St. Peter's Catholic Primary School","22.250874, 114.157891","22.250874"," 114.157891",4263,3321,NA,NA,NA,"pro-democracy","pro-establishment",NA,NA,NA,"POWER FOR DEMOCRACY","DAB",NA,NA,NA
"2019","District Council Election","First-past-the-post","Southern District","D15","WONG CHUK HANG","黃竹坑","D1501","香港仔網球及壁球中心","Aberdeen Tennis and Squash Centre","22.2475872, 114.1599655","22.2475872"," 114.1599655",848,1166,NA,NA,NA,"pro-establishment","pro-democracy",NA,NA,NA,"FTU","THE DEMOCRATIC PARTY",NA,NA,NA
"2019","District Council Election","First-past-the-post","Southern District","D15","WONG CHUK HANG","黃竹坑","D1502","新會商會陳白沙紀念中學","SWCS Chan Pak Sha School","22.2454456, 114.166369","22.2454456"," 114.166369",2045,2817,NA,NA,NA,"pro-establishment","pro-democracy",NA,NA,NA,"FTU","THE DEMOCRATIC PARTY",NA,NA,NA
"2019","District Council Election","First-past-the-post","Southern District","D16","BAYS AREA","海灣","D1601","南島中學","South Island School","22.2539692, 114.1828567","22.2539692"," 114.1828567",383,881,NA,NA,NA,"pro-democracy","pro-establishment",NA,NA,NA,"POWER FOR DEMOCRACY","LIBERAL PARTY",NA,NA,NA
"2019","District Council Election","First-past-the-post","Southern District","D16","BAYS AREA","海灣","D1602","香港國際學校","Hong Kong International School","22.2377543, 114.2227811","22.2377543"," 114.2227811",424,1001,NA,NA,NA,"pro-democracy","pro-establishment",NA,NA,NA,"POWER FOR DEMOCRACY","LIBERAL PARTY",NA,NA,NA
"2019","District Council Election","First-past-the-post","Southern District","D17","STANLEY & SHEK O","赤柱及石澳","D1701","赤柱社區會堂","Stanley Community Hall","22.2190329, 114.2122284","22.2190329"," 114.2122284",2084,2228,93,NA,NA,NA,"pro-democracy",NA,NA,NA,NA,"POWER FOR DEMOCRACY",NA,NA,NA
"2019","District Council Election","First-past-the-post","Southern District","D17","STANLEY & SHEK O","赤柱及石澳","D1702","石澳康樂及文化事務署職員宿舍","Shek O Leisure and Cultural Services Department Staff Quarters","22.23130207789816, 114.25112959531835","22.23130207789816"," 114.25112959531835",508,452,10,NA,NA,NA,"pro-democracy",NA,NA,NA,NA,"POWER FOR DEMOCRACY",NA,NA,NA
"2019","District Council Election","First-past-the-post","Yau Tsim Mong District","E01","TSIM SHA TSUI WEST","尖沙咀西","E0101","九龍公園游泳池","Kowloon Park Swimming Pool","22.301755, 114.1705215","22.301755"," 114.1705215",124,35,788,154,1003,NA,NA,"pro-establishment",NA,"pro-democracy",NA,NA,"DAB",NA,"POWER FOR DEMOCRACY"
"2019","District Council Election","First-past-the-post","Yau Tsim Mong District","E02","KOWLOON STATION","九龍站","E0201","仁愛堂陳鄭玉而幼稚園","Yan Oi Tong Chan Cheng Yuk Yee Kindergarten","22.3035557, 114.1604132","22.3035557"," 114.1604132",82,1821,1928,NA,NA,NA,"pro-democracy","pro-establishment",NA,NA,NA,"THE DEMOCRATIC PARTY","DAB",NA,NA
"2019","District Council Election","First-past-the-post","Yau Tsim Mong District","E03","JORDAN WEST","佐敦西","E0301","油尖旺多元文化活動中心","Yau Tsim Mong Multicultural Activity Centre","22.3075316, 114.1687668","22.3075316"," 114.1687668",2604,2233,NA,NA,NA,"pro-democracy","pro-establishment",NA,NA,NA,"POWER FOR DEMOCRACY","BPA",NA,NA,NA
"2019","District Council Election","First-past-the-post","Yau Tsim Mong District","E04","YAU MA TEI SOUTH","油麻地南","E0401","梁顯利油麻地社區中心","Henry G. Leong Yaumatei Community Centre","22.3099219, 114.169734","22.3099219"," 114.169734",2432,2984,NA,NA,NA,"pro-establishment","pro-democracy",NA,NA,NA,"DAB","COMMUNITY MARCH",NA,NA,NA
"2019","District Council Election","First-past-the-post","Yau Tsim Mong District","E05","CHARMING","富榮","E0501","油蔴地天主教小學(海泓道)","Yaumati Catholic Primary School (Hoi Wang Road)","22.3134203, 114.164068","22.3134203"," 114.164068",133,4242,3373,NA,NA,NA,"pro-democracy","pro-establishment",NA,NA,NA,"THE DEMOCRATIC PARTY","DAB",NA,NA
"2019","District Council Election","First-past-the-post","Yau Tsim Mong District","E06","MONG KOK WEST","旺角西","E0601","旺角社區會堂","Mong Kok Community Hall","22.3182536, 114.1680795","22.3182536"," 114.1680795",2102,1787,NA,NA,NA,NA,"pro-democracy",NA,NA,NA,NA,"POWER FOR DEMOCRACY",NA,NA,NA
"2019","District Council Election","First-past-the-post","Yau Tsim Mong District","E07","FU PAK","富柏","E0701","保良局陳守仁小學","PLK Camões Tan Siu Lin Primary School","22.315017, 114.1653472","22.315017"," 114.1653472",4748,2844,NA,NA,NA,"pro-democracy",NA,NA,NA,NA,"CIVIC PARTY",NA,NA,NA,NA
"2019","District Council Election","First-past-the-post","Yau Tsim Mong District","E08","OLYMPIC","奧運","E0801","香港亞洲歸主協會維港灣長者會所","Asian Outreach Hong Kong Island Harbourview Elderly Club","22.319912, 114.1578697","22.319912"," 114.1578697",2957,2130,NA,NA,NA,"pro-democracy",NA,NA,NA,NA,"THE DEMOCRATIC PARTY",NA,NA,NA,NA
"2019","District Council Election","First-past-the-post","Yau Tsim Mong District","E09","CHERRY","櫻桃","E0901","路德會沙崙學校","Sharon Lutheran School","22.31893, 114.164992","22.31893"," 114.164992",2310,2014,NA,NA,NA,NA,"pro-democracy",NA,NA,NA,NA,"CIVIC PARTY",NA,NA,NA
"2019","District Council Election","First-past-the-post","Yau Tsim Mong District","E10","TAI KOK TSUI SOUTH","大角咀南","E1001","大角嘴天主教小學","Tai Kok Tsui Catholic Primary School","22.3220701, 114.1624209","22.3220701"," 114.1624209",2068,2632,NA,NA,NA,"pro-establishment","pro-democracy",NA,NA,NA,"DAB","THE DEMOCRATIC PARTY",NA,NA,NA
"2019","District Council Election","First-past-the-post","Yau Tsim Mong District","E11","TAI KOK TSUI NORTH","大角咀北","E1101","中華基督教會基全小學","CCC Kei Tsun Primary School","22.3224375, 114.1621756","22.3224375"," 114.1621756",3028,3301,NA,NA,NA,NA,NA,NA,NA,NA,NA,NA,NA,NA,NA
"2019","District Council Election","First-past-the-post","Yau Tsim Mong District","E12","TAI NAN","大南","E1201","鮮魚行學校","Fresh Fish Traders' School","22.3246395, 114.1640467","22.3246395"," 114.1640467",2943,57,2046,NA,NA,"pro-democracy",NA,"pro-establishment",NA,NA,"COMMUNITY MARCH",NA,"BPA",NA,NA
"2019","District Council Election","First-past-the-post","Yau Tsim Mong District","E13","MONG KOK NORTH","旺角北","E1301","聖公會基榮小學","SKH Kei Wing Primary School","22.3223495, 114.1679249","22.3223495"," 114.1679249",2161,2076,NA,NA,NA,NA,"pro-establishment",NA,NA,NA,NA,"BPA",NA,NA,NA
"2019","District Council Election","First-past-the-post","Yau Tsim Mong District","E14","MONG KOK EAST","旺角東","E1401","界限街一號體育館","Boundary Street Sports Centre No. 1","22.3256269, 114.1708938","22.3256269"," 114.1708938",2663,1821,NA,NA,NA,"pro-democracy","pro-establishment",NA,NA,NA,"COMMUNITY MARCH","BPA",NA,NA,NA
"2019","District Council Election","First-past-the-post","Yau Tsim Mong District","E15","MONG KOK SOUTH","旺角南","E1501","優才(楊殷有娣)書院","G.T. (Ellen Yeung) College","22.31775, 114.171775","22.31775"," 114.171775",1747,1977,NA,NA,NA,NA,"pro-democracy",NA,NA,NA,NA,"COMMUNITY MARCH",NA,NA,NA
"2019","District Council Election","First-past-the-post","Yau Tsim Mong District","E16","YAU MA TEI NORTH","油麻地北","E1601","東華三院羅裕積小學","TWGHs Lo Yu Chik Primary School","22.314372, 114.171228","22.314372"," 114.171228",2573,1243,NA,NA,NA,"pro-democracy",NA,NA,NA,NA,"POWER FOR DEMOCRACY",NA,NA,NA,NA
"2019","District Council Election","First-past-the-post","Yau Tsim Mong District","E17","EAST TSIM SHA TSUI & KING'S PARK","尖東及京士柏","E1701","油蔴地街坊會學校","Yaumati Kaifong Association School","22.3102081, 114.1717112","22.3102081"," 114.1717112",1745,1567,NA,NA,NA,NA,NA,NA,NA,NA,NA,NA,NA,NA,NA
"2019","District Council Election","First-past-the-post","Yau Tsim Mong District","E18","JORDAN NORTH","佐敦北","E1801","佐敦道官立小學","Jordan Road Government Primary School","22.306195, 114.1689002","22.306195"," 114.1689002",1117,1423,NA,NA,NA,"pro-establishment","pro-democracy",NA,NA,NA,"DAB","POWER FOR DEMOCRACY",NA,NA,NA
"2019","District Council Election","First-past-the-post","Yau Tsim Mong District","E19","JORDAN SOUTH","佐敦南","E1901","九龍公園體育館","Kowloon Park Sports Centre","22.3017934, 114.1704097","22.3017934"," 114.1704097",1516,1451,NA,NA,NA,"pro-democracy","pro-establishment",NA,NA,NA,"POWER FOR DEMOCRACY","DAB",NA,NA,NA
"2019","District Council Election","First-past-the-post","Yau Tsim Mong District","E20","TSIM SHA TSUI CENTRAL","尖沙咀中","E2001","入境事務處西九龍辦事處","Immigration Department West Kowloon Office","22.3003491, 114.1737427","22.3003491"," 114.1737427",1533,1167,NA,NA,NA,"pro-democracy","pro-establishment",NA,NA,NA,"COMMUNITY MARCH","DAB",NA,NA,NA
"2019","District Council Election","First-past-the-post","Sham Shui Po District","F01","PO LAI","寶麗","F0101","保安道體育館","Po On Road Sports Centre","22.3383672, 114.1580477","22.3383672"," 114.1580477",3517,122,1860,NA,NA,"pro-democracy",NA,"pro-establishment",NA,NA,"ADPL",NA,"BPA",NA,NA
"2019","District Council Election","First-past-the-post","Sham Shui Po District","F02","CHEUNG SHA WAN","長沙灣","F0201","福榮街官立小學","Fuk Wing Street Government Primary School","22.3339526, 114.1596223","22.3339526"," 114.1596223",3359,2103,41,NA,NA,"pro-democracy","pro-establishment",NA,NA,NA,"COMMUNITY ESTABLISHMENT
POWER*","BPA",NA,NA,NA
"2019","District Council Election","First-past-the-post","Sham Shui Po District","F03","NAM CHEONG NORTH","南昌北","F0301","香港基督教女青年會誌寶松柏中心","Hong Kong Y.W.C.A. Chi Po Neighbourhood Elderly Centre","22.332008, 114.163327","22.332008"," 114.163327",55,1747,2193,NA,NA,NA,"pro-establishment","pro-democracy",NA,NA,NA,"DAB*","POWER FOR DEMOCRACY",NA,NA
"2019","District Council Election","First-past-the-post","Sham Shui Po District","F04","SHEK KIP MEI","石硤尾","F0401","石硤尾社區會堂","Shek Kip Mei Community Hall","22.332554, 114.165884","22.332554"," 114.165884",3235,3225,NA,NA,NA,NA,"pro-establishment",NA,NA,NA,NA,"BPA",NA,NA,NA
"2019","District Council Election","First-past-the-post","Sham Shui Po District","F05","NAM CHEONG EAST","南昌東","F0501","香港聖公會聖多馬堂","Hong Kong Sheng Kung Hui St.Thomas' Church","22.3320336, 114.1653145","22.3320336"," 114.1653145",1916,2996,NA,NA,NA,"pro-establishment","pro-democracy",NA,NA,NA,"DAB*","ADPL",NA,NA,NA
"2019","District Council Election","First-past-the-post","Sham Shui Po District","F06","NAM CHEONG SOUTH","南昌南","F0601","深水埔街坊福利事務促進會","Shamshuipo Kaifong Welfare Advancement Association","22.3274277, 114.1650121","22.3274277"," 114.1650121",1734,2334,NA,NA,NA,"pro-establishment","pro-democracy",NA,NA,NA,"THE FEDERATION OF HONG
KONG & KOWLOON LABOUR
UNIONS*","ADPL",NA,NA,NA
"2019","District Council Election","First-past-the-post","Sham Shui Po District","F07","NAM CHEONG CENTRAL","南昌中","F0701","北河街體育館","Pei Ho Street Sports Centre","22.3293401, 114.1610877","22.3293401"," 114.1610877",1538,1640,NA,NA,NA,NA,"pro-establishment",NA,NA,NA,NA,"DAB*",NA,NA,NA
"2019","District Council Election","First-past-the-post","Sham Shui Po District","F08","NAM CHEONG WEST","南昌西","F0801","南昌社區中心","Nam Cheong District Community Centre","22.3271447, 114.1574969","22.3271447"," 114.1574969",3573,2074,NA,NA,NA,"pro-democracy",NA,NA,NA,NA,"ADPL",NA,NA,NA,NA
"2019","District Council Election","First-past-the-post","Sham Shui Po District","F09","FU CHEONG","富昌","F0901","英華書院","Ying Wa College","22.3295395, 114.1524441","22.3295395"," 114.1524441",4097,4281,NA,NA,NA,"pro-establishment",NA,NA,NA,NA,"BPA",NA,NA,NA,NA
"2019","District Council Election","First-past-the-post","Sham Shui Po District","F10","LAI KOK","麗閣","F1001","麗閣社區會堂","Lai Kok Community Hall","22.333965, 114.157466","22.333965"," 114.157466",3051,3592,NA,NA,NA,"pro-establishment","pro-democracy",NA,NA,NA,"FTU","ADPL*",NA,NA,NA
"2019","District Council Election","First-past-the-post","Sham Shui Po District","F11","FORTUNE","幸福","F1101","旅港開平商會學校","Hoi Ping Chamber of Commerce Primary School","22.3343, 114.153519","22.3343"," 114.153519",2668,2604,NA,NA,NA,"pro-democracy","pro-establishment",NA,NA,NA,"ADPL","DAB*",NA,NA,NA
"2019","District Council Election","First-past-the-post","Sham Shui Po District","F12","PIK WUI","碧匯","F1201","西九龍調解中心","West Kowloon Mediation Centre","22.33042083182949, 114.15327217947811","22.33042083182949"," 114.15327217947811",953,567,62,NA,NA,"pro-democracy","pro-establishment",NA,NA,NA,"THE DEMOCRATIC PARTY","BPA",NA,NA,NA
"2019","District Council Election","First-past-the-post","Sham Shui Po District","F12","PIK WUI","碧匯","F1202","海盈邨平台乒乓球場","Table Tennis Court, Podium, Hoi Ying Estate","22.3286015, 114.1483146","22.3286015"," 114.1483146",509,583,58,NA,NA,"pro-democracy","pro-establishment",NA,NA,NA,"THE DEMOCRATIC PARTY","BPA",NA,NA,NA
"2019","District Council Election","First-past-the-post","Sham Shui Po District","F13","LAI CHI KOK CENTRAL","荔枝角中","F1301","荔枝角社區會堂","Lai Chi Kok Community Hall","22.333982, 114.148004","22.333982"," 114.148004",4503,2584,NA,NA,NA,"pro-democracy","pro-establishment",NA,NA,NA,"THE DEMOCRATIC PARTY","BPA",NA,NA,NA
"2019","District Council Election","First-past-the-post","Sham Shui Po District","F14","LAI CHI KOK SOUTH","荔枝角南","F1401","聖公會聖馬利亞堂莫慶堯中學","SKH St. Mary's Church Mok Hing Yiu College","22.3314963, 114.1479298","22.3314963"," 114.1479298",5292,3145,NA,NA,NA,"pro-democracy","pro-establishment",NA,NA,NA,"ADPL","DAB*",NA,NA,NA
"2019","District Council Election","First-past-the-post","Sham Shui Po District","F15","MEI FOO SOUTH","美孚南","F1501","美孚新邨孚佑堂","Mei Foo Sun Chuen Community Centre","22.3354788, 114.1387063","22.3354788"," 114.1387063",3117,4020,NA,NA,NA,NA,"pro-democracy",NA,NA,NA,NA,"CIVIC PARTY",NA,NA,NA
"2019","District Council Election","First-past-the-post","Sham Shui Po District","F16","MEI FOO CENTRAL","美孚中","F1601","地利亞修女紀念學校(吉利徑)","Delia Memorial School (Glee Path)","22.3370184, 114.1388759","22.3370184"," 114.1388759",2430,3666,NA,NA,NA,"pro-establishment","pro-democracy",NA,NA,NA,"NEW PEOPLE'S PARTY","CIVIC PARTY",NA,NA,NA
"2019","District Council Election","First-past-the-post","Sham Shui Po District","F17","MEI FOO NORTH","美孚北","F1701","荔枝角公園體育館","Lai Chi Kok Park Sports Centre","22.3404857, 114.1383778","22.3404857"," 114.1383778",1347,1193,4154,NA,NA,NA,NA,"pro-democracy",NA,NA,NA,NA,"CIVIC PARTY",NA,NA
"2019","District Council Election","First-past-the-post","Sham Shui Po District","F18","LAI CHI KOK NORTH","荔枝角北","F1801","五邑工商總會學校","Five Districts Business Welfare Association School","22.34101, 114.154512","22.34101"," 114.154512",2738,1372,NA,NA,NA,"pro-democracy","pro-establishment",NA,NA,NA,"ADPL","KOWLOON WEST NEW
DYNAMIC*",NA,NA,NA
"2019","District Council Election","First-past-the-post","Sham Shui Po District","F19","UN CHAU","元州","F1901","長沙灣體育館","Cheung Sha Wan Sports Centre","22.3379973, 114.1534396","22.3379973"," 114.1534396",3960,3427,NA,NA,NA,"pro-democracy","pro-establishment",NA,NA,NA,"ADPL","DAB*",NA,NA,NA
"2019","District Council Election","First-past-the-post","Sham Shui Po District","F20","SO UK","蘇屋","F2001","佛教大雄中學","Buddhist Tai Hung College","22.3401187, 114.1581903","22.3401187"," 114.1581903",2522,51,2650,NA,NA,"pro-democracy",NA,"pro-establishment",NA,NA,"ADPL",NA,"DAB*",NA,NA
"2019","District Council Election","First-past-the-post","Sham Shui Po District","F21","LEI CHENG UK","李鄭屋","F2101","長沙灣社區中心","Cheung Sha Wan Community Centre","22.3399823, 114.1586869","22.3399823"," 114.1586869",4127,2490,120,NA,NA,"pro-democracy","pro-establishment",NA,NA,NA,"ADPL","BPA",NA,NA,NA
"2019","District Council Election","First-past-the-post","Sham Shui Po District","F22","LUNG PING & SHEUNG PAK TIN","龍坪及上白田","F2201","白田天主教小學","Pak Tin Catholic Primary School","22.3336826, 114.1562369","22.3336826"," 114.1562369",494,1782,NA,NA,NA,NA,NA,NA,NA,NA,NA,NA,NA,NA,NA
"2019","District Council Election","First-past-the-post","Sham Shui Po District","F22","LUNG PING & SHEUNG PAK TIN","龍坪及上白田","F2202","香港城市大學澤安中心","Chak On Centre, City University of Hong Kong","22.33995, 114.164519","22.33995"," 114.164519",700,1051,NA,NA,NA,NA,NA,NA,NA,NA,NA,NA,NA,NA,NA
"2019","District Council Election","First-past-the-post","Sham Shui Po District","F22","LUNG PING & SHEUNG PAK TIN","龍坪及上白田","F2203","嗇色園主辦可澤耆英鄰舍中心","Ho Chak Neighbourhood Centre for Senior Citizens (Sponsored by Sik Sik Yuen)","22.340551, 114.163792","22.340551"," 114.163792",486,1198,NA,NA,NA,NA,NA,NA,NA,NA,NA,NA,NA,NA,NA
"2019","District Council Election","First-past-the-post","Sham Shui Po District","F23","HA PAK TIN","下白田","F2301","白田社區會堂","Pak Tin Community Hall","22.3360032, 114.1665664","22.3360032"," 114.1665664",1952,3206,41,436,NA,"pro-establishment",NA,NA,NA,NA,"DAB*",NA,NA,NA,NA
"2019","District Council Election","First-past-the-post","Sham Shui Po District","F24","YAU YAT TSUEN","又一村","F2401","瑪利諾神父教會學校","Maryknoll Fathers' School","22.3341558, 114.1732505","22.3341558"," 114.1732505",2487,2391,NA,NA,NA,NA,"pro-establishment",NA,NA,NA,NA,"LIBERAL PARTY",NA,NA,NA
"2019","District Council Election","First-past-the-post","Sham Shui Po District","F25","NAM SHAN, TAI HANG TUNG & TAI HANG SAI","南山、大坑東及大坑西","F2501","大坑東社區中心","Tai Hang Tung Community Centre","22.3305286, 114.1702471","22.3305286"," 114.1702471",116,3231,47,4546,NA,NA,NA,NA,NA,NA,NA,NA,NA,NA,NA
"2019","District Council Election","First-past-the-post","Kowloon City District","G01","MA TAU WAI","馬頭圍","G0101","馬頭涌官立小學","Ma Tau Chung Government Primary School","22.32462, 114.186772","22.32462"," 114.186772",3712,93,4264,NA,NA,"pro-establishment",NA,"pro-democracy",NA,NA,"DAB*",NA,"POWER FOR DEMOCRACY",NA,NA
"2019","District Council Election","First-past-the-post","Kowloon City District","G02","SUNG WONG TOI","宋皇臺","G0201","聖三一堂小學","Holy Trinity Primary School","22.325128, 114.18849","22.325128"," 114.18849",3406,1315,318,NA,NA,"pro-democracy","pro-establishment",NA,NA,NA,"POWER FOR DEMOCRACY","FTU*",NA,NA,NA
"2019","District Council Election","First-past-the-post","Kowloon City District","G03","MA HANG CHUNG","馬坑涌","G0301","土瓜灣體育館","To Kwa Wan Sports Centre","22.3188874, 114.1902877","22.3188874"," 114.1902877",2437,3966,84,NA,NA,"pro-establishment","pro-democracy",NA,NA,NA,"FTU*","THE DEMOCRATIC PARTY",NA,NA,NA
"2019","District Council Election","First-past-the-post","Kowloon City District","G04","MA TAU KOK","馬頭角","G0401","保良局林文燦英文小學","PLK Lam Man Chan English Primary School","22.3186683, 114.1882151","22.3186683"," 114.1882151",2195,2499,40,NA,NA,"pro-establishment","pro-democracy",NA,NA,NA,"DAB","THE DEMOCRATIC PARTY",NA,NA,NA
"2019","District Council Election","First-past-the-post","Kowloon City District","G05","LOK MAN","樂民","G0501","獻主會聖馬善樂小學","St. Eugene de Mazenod Oblate Primary School","22.3198086, 114.1860868","22.3198086"," 114.1860868",3312,2694,NA,NA,NA,NA,"pro-democracy",NA,NA,NA,NA,"POWER FOR DEMOCRACY",NA,NA,NA
"2019","District Council Election","First-past-the-post","Kowloon City District","G06","SHEUNG LOK","常樂","G0601","聖文嘉幼稚園","St. Monica's Kindergarten","22.3143321, 114.1827134","22.3143321"," 114.1827134",1884,2588,71,NA,NA,"pro-establishment","pro-democracy",NA,NA,NA,"DAB*","THE DEMOCRATIC PARTY*",NA,NA,NA
"2019","District Council Election","First-past-the-post","Kowloon City District","G06","SHEUNG LOK","常樂","G0602","循道衛理楊震社會服務處何文田青少年綜合發展中心","YMMSS Homantin Integrated Centre for Youth Development","22.315528, 114.182187","22.315528"," 114.182187",1366,1995,48,NA,NA,"pro-establishment","pro-democracy",NA,NA,NA,"DAB*","THE DEMOCRATIC PARTY*",NA,NA,NA
"2019","District Council Election","First-past-the-post","Kowloon City District","G07","HO MAN TIN","何文田","G0701","女青賽馬會社會服務大樓","HKYWCA Jockey Club Social Service Building","22.318957, 114.176309","22.318957"," 114.176309",2495,62,2233,NA,NA,"pro-democracy",NA,NA,NA,NA,"THE DEMOCRATIC PARTY",NA,NA,NA,NA
"2019","District Council Election","First-past-the-post","Kowloon City District","G07","HO MAN TIN","何文田","G0702","何文田官立中學","Homantin Government Secondary School","22.3210546, 114.1803702","22.3210546"," 114.1803702",1227,34,1189,NA,NA,"pro-democracy",NA,NA,NA,NA,"THE DEMOCRATIC PARTY",NA,NA,NA,NA
"2019","District Council Election","First-past-the-post","Kowloon City District","G08","KADOORIE","嘉道理","G0801","明愛九龍社區中心","Caritas Community Centre - Kowloon","22.3259593, 114.1777944","22.3259593"," 114.1777944",1086,1344,NA,NA,NA,NA,"pro-democracy",NA,NA,NA,NA,"THE DEMOCRATIC PARTY",NA,NA,NA
"2019","District Council Election","First-past-the-post","Kowloon City District","G08","KADOORIE","嘉道理","G0802","九龍總商會","Kowloon Chamber of Commerce","22.318505, 114.1743343","22.318505"," 114.1743343",1170,2585,NA,NA,NA,NA,"pro-democracy",NA,NA,NA,NA,"THE DEMOCRATIC PARTY",NA,NA,NA
"2019","District Council Election","First-past-the-post","Kowloon City District","G09","PRINCE","太子","G0901","東華三院黃笏南中學","TWGHs Wong Fut Nam College","22.3291467, 114.1804157","22.3291467"," 114.1804157",164,2219,2512,NA,NA,NA,NA,"pro-democracy",NA,NA,NA,NA,"THE DEMOCRATIC PARTY",NA,NA
"2019","District Council Election","First-past-the-post","Kowloon City District","G10","KOWLOON TONG","九龍塘","G1001","九龍塘官立小學","Kowloon Tong Government Primary School","22.3360377, 114.178438","22.3360377"," 114.178438",2291,2481,NA,NA,NA,"pro-democracy","pro-establishment",NA,NA,NA,"CIVIC PARTY","LIBERAL PARTY",NA,NA,NA
"2019","District Council Election","First-past-the-post","Kowloon City District","G10","KOWLOON TONG","九龍塘","G1002","九龍方方樂趣幼稚兒園","Kowloon Funful Kindergarten & Children's Corner","22.3148822, 114.1900168","22.3148822"," 114.1900168",276,471,NA,NA,NA,"pro-democracy","pro-establishment",NA,NA,NA,"CIVIC PARTY","LIBERAL PARTY",NA,NA,NA
"2019","District Council Election","First-past-the-post","Kowloon City District","G11","LUNG SHING","龍城","G1101","九龍城體育館","Kowloon City Sports Centre","22.3296108, 114.1890487","22.3296108"," 114.1890487",1983,101,1884,NA,NA,"pro-establishment",NA,"pro-democracy",NA,NA,"DAB",NA,"KLCMATTERS",NA,NA
"2019","District Council Election","First-past-the-post","Kowloon City District","G12","KAI TAK NORTH","啟德北","G1201","聖公會聖十架小學","SKH Holy Cross Primary School","22.3328784, 114.2042488","22.3328784"," 114.2042488",2480,29,2043,NA,NA,"pro-establishment",NA,NA,NA,NA,"BPA",NA,NA,NA,NA
"2019","District Council Election","First-past-the-post","Kowloon City District","G13","KAI TAK EAST","啟德東","G1301","佛教陳策文伉儷幼稚園","Buddhist Mr. & Mrs. Chan Chart Man Kindergarten","22.3297697, 114.203378","22.3297697"," 114.203378",2638,1835,NA,NA,NA,"pro-establishment","pro-democracy",NA,NA,NA,"BPA","POWER FOR DEMOCRACY",NA,NA,NA
"2019","District Council Election","First-past-the-post","Kowloon City District","G14","KAI TAK CENTRAL & SOUTH","啟德中及南","G1401","保良局溫林美賢耆暉中心","PLK Wan Lam May Yin Shirley Neighborhood Elderly Centre","22.3313636, 114.203216","22.3313636"," 114.203216",1574,1367,NA,NA,NA,NA,"pro-democracy",NA,NA,NA,NA,"CIVIC PARTY*",NA,NA,NA
"2019","District Council Election","First-past-the-post","Kowloon City District","G15","HOI SHAM","海心","G1501","聖公會聖匠小學","SKH Holy Carpenter Primary School","22.316295, 114.1926876","22.316295"," 114.1926876",2890,2916,NA,NA,NA,"pro-democracy","pro-establishment",NA,NA,NA,"POWER FOR DEMOCRACY","DAB",NA,NA,NA
"2019","District Council Election","First-past-the-post","Kowloon City District","G16","TO KWA WAN NORTH","土瓜灣北","G1601","基督教香港信義會紅磡信義學校","ELCHK Hung Hom Lutheran Primary School","22.318409, 114.187897","22.318409"," 114.187897",1538,1881,NA,NA,NA,"pro-democracy","pro-establishment",NA,NA,NA,"LEAGUE OF SOCIAL
DEMOCRATS","DAB",NA,NA,NA
"2019","District Council Election","First-past-the-post","Kowloon City District","G17","TO KWA WAN SOUTH","土瓜灣南","G1701","中華基督教會基道中學","CCC Kei To Secondary School","22.3134489, 114.1904874","22.3134489"," 114.1904874",1766,1936,107,NA,NA,NA,"pro-democracy",NA,NA,NA,NA,"POWER FOR DEMOCRACY",NA,NA,NA
"2019","District Council Election","First-past-the-post","Kowloon City District","G18","HOK YUEN LAGUNA VERDE","鶴園海逸","G1801","博愛醫院任永賢夫人幼稚園幼兒中心","POH Mrs. Yam Wing Yin Kindergarten Day Nursery","22.306645, 114.192554","22.306645"," 114.192554",40,2011,1797,NA,NA,NA,"pro-democracy",NA,NA,NA,NA,"POWER FOR DEMOCRACY",NA,NA,NA
"2019","District Council Election","First-past-the-post","Kowloon City District","G18","HOK YUEN LAGUNA VERDE","鶴園海逸","G1802","紅磡社區會堂","Hung Hom Community Hall","22.3119494, 114.1897768","22.3119494"," 114.1897768",26,1043,886,NA,NA,NA,"pro-democracy",NA,NA,NA,NA,"POWER FOR DEMOCRACY",NA,NA,NA
"2019","District Council Election","First-past-the-post","Kowloon City District","G19","WHAMPOA EAST","黃埔東","G1901","葛量洪校友會黃埔學校","GCE Past Students' Association Whampoa Primary School","22.303541, 114.1914023","22.303541"," 114.1914023",4595,3374,NA,NA,NA,NA,"pro-establishment",NA,NA,NA,NA,"BPA",NA,NA,NA
"2019","District Council Election","First-past-the-post","Kowloon City District","G20","WHAMPOA WEST","黃埔西","G2001","馬頭涌官立小學(紅磡灣)","Ma Tau Chung Government Primary School (Hung Hom Bay)","22.3023906, 114.1879149","22.3023906"," 114.1879149",1706,2578,NA,NA,NA,NA,NA,NA,NA,NA,NA,NA,NA,NA,NA
"2019","District Council Election","First-past-the-post","Kowloon City District","G20","WHAMPOA WEST","黃埔西","G2002","黃埔宣道小學","Alliance Primary School Whampoa","22.3031058, 114.190845","22.3031058"," 114.190845",1204,2137,NA,NA,NA,NA,NA,NA,NA,NA,NA,NA,NA,NA,NA
"2019","District Council Election","First-past-the-post","Kowloon City District","G21","HUNG HOM BAY","紅磡灣","G2101","聖公會聖匠中學","SKH Holy Carpenter Secondary School","22.3075982, 114.1880024","22.3075982"," 114.1880024",178,2688,3554,NA,NA,NA,NA,"pro-democracy",NA,NA,NA,NA,"THE DEMOCRATIC PARTY",NA,NA
"2019","District Council Election","First-past-the-post","Kowloon City District","G22","HUNG HOM","紅磡","G2201","愛培學校","Aoi Pui School","22.307968709815235, 114.18595038880095","22.307968709815235"," 114.18595038880095",1524,1779,NA,NA,NA,NA,"pro-establishment",NA,NA,NA,NA,"DAB*",NA,NA,NA
"2019","District Council Election","First-past-the-post","Kowloon City District","G23","KA WAI","家維","G2301","紅磡市政大廈體育館","Hung Hom Municipal Services Building Sports Centre","22.3074403, 114.1872381","22.3074403"," 114.1872381",4115,3769,58,NA,NA,"pro-democracy",NA,NA,NA,NA,"THE DEMOCRATIC PARTY",NA,NA,NA,NA
"2019","District Council Election","First-past-the-post","Kowloon City District","G24","OI MAN","愛民","G2401","何文田體育館","Ho Man Tin Sports Centre","22.3118107, 114.1811141","22.3118107"," 114.1811141",3176,3625,NA,NA,NA,"pro-establishment","pro-democracy",NA,NA,NA,"DAB","THE DEMOCRATIC PARTY",NA,NA,NA
"2019","District Council Election","First-past-the-post","Kowloon City District","G25","OI CHUN","愛俊","G2501","天主教領島學校","Ling To Catholic Primary School","22.31475, 114.179306","22.31475"," 114.179306",3268,3237,454,NA,NA,"pro-establishment","pro-democracy",NA,NA,NA,"BPA","THE DEMOCRATIC PARTY",NA,NA,NA
"2019","District Council Election","First-past-the-post","Wong Tai Sin District","H01","LUNG TSUI","龍趣","H0101","黃大仙社區中心","Wong Tai Sin Community Centre","22.3429615, 114.1929813","22.3429615"," 114.1929813",2911,2651,NA,NA,NA,"pro-democracy",NA,NA,NA,NA,"POWER FOR DEMOCRACY",NA,NA,NA,NA
"2019","District Council Election","First-past-the-post","Wong Tai Sin District","H02","LUNG HA","龍下","H0201","黃大仙官立小學","Wong Tai Sin Government Primary School","22.3409341, 114.1934377","22.3409341"," 114.1934377",4394,2192,NA,NA,NA,NA,"pro-establishment",NA,NA,NA,NA,"EAST KOWLOON  DISTRICT
RESIDENTS' COMMITTEE*",NA,NA,NA
"2019","District Council Election","First-past-the-post","Wong Tai Sin District","H03","LUNG SHEUNG","龍上","H0301","龍翔官立中學","Lung Cheung Government Secondary School","22.3428504, 114.1900255","22.3428504"," 114.1900255",4460,3581,NA,NA,NA,NA,"pro-establishment",NA,NA,NA,NA,"FTU",NA,NA,NA
"2019","District Council Election","First-past-the-post","Wong Tai Sin District","H04","FUNG WONG","鳳凰","H0401","慈雲山綜合家庭服務中心","Tsz Wan Shan Integrated Family Service Centre","22.3450215, 114.197463","22.3450215"," 114.197463",1831,2882,NA,NA,NA,NA,"pro-democracy",NA,NA,NA,NA,"THE DEMOCRATIC PARTY",NA,NA,NA
"2019","District Council Election","First-past-the-post","Wong Tai Sin District","H05","FUNG TAK","鳳德","H0501","鳳德社區中心","Fung Tak Estate Community Centre","22.3430037, 114.2016417","22.3430037"," 114.2016417",3436,4396,NA,NA,NA,"pro-establishment","pro-democracy",NA,NA,NA,"DAB","TSZ WAN SHAN
CONSTRUCTIVE POWER*",NA,NA,NA
"2019","District Council Election","First-past-the-post","Wong Tai Sin District","H06","LUNG SING","龍星","H0601","香港小童群益會賽馬會慈雲山青少年綜合服務中心","The Boys' & Girls' Clubs Association of Hong Kong Jockey Club Tsz Wan Shan Children & Youth Integrated Services Centre","22.3481295, 114.19927","22.3481295"," 114.19927",206,1833,3580,91,NA,NA,NA,NA,NA,NA,NA,NA,NA,NA,NA
"2019","District Council Election","First-past-the-post","Wong Tai Sin District","H06","LUNG SING","龍星","H0602","保良局張麥珍耆樂中心","PLK Mrs. Maria Cheung Lifelong Learning Institute for the Senior","22.341916, 114.201768","22.341916"," 114.201768",130,875,2518,39,NA,NA,NA,NA,NA,NA,NA,NA,NA,NA,NA
"2019","District Council Election","First-past-the-post","Wong Tai Sin District","H07","SAN PO KONG","新蒲崗","H0701","保良局陳南昌夫人小學","PLK Mrs. Chan Nam Chong Memorial Primary School","22.3352148, 114.1966957","22.3352148"," 114.1966957",1677,1275,NA,NA,NA,NA,"pro-establishment",NA,NA,NA,NA,"EAST KOWLOON  DISTRICT
RESIDENTS' COMMITTEE*",NA,NA,NA
"2019","District Council Election","First-past-the-post","Wong Tai Sin District","H07","SAN PO KONG","新蒲崗","H0702","嘉諾撒小學 (新蒲崗)","Canossa Primary School (San Po Kong)","22.3370771, 114.2015969","22.3370771"," 114.2015969",2695,2193,NA,NA,NA,NA,"pro-establishment",NA,NA,NA,NA,"EAST KOWLOON  DISTRICT
RESIDENTS' COMMITTEE*",NA,NA,NA
"2019","District Council Election","First-past-the-post","Wong Tai Sin District","H08","TUNG TAU","東頭","H0801","東頭社區中心","Tung Tau Community Centre","22.3319265, 114.1935092","22.3319265"," 114.1935092",3659,3822,NA,NA,NA,"pro-establishment","pro-democracy",NA,NA,NA,"DAB","PEOPLE POWER",NA,NA,NA
"2019","District Council Election","First-past-the-post","Wong Tai Sin District","H09","TUNG MEI","東美","H0901","孔教學院大成小學","Confucian Tai Shing Primary School","22.3373543, 114.1939663","22.3373543"," 114.1939663",2314,4854,NA,NA,NA,"pro-establishment","pro-democracy",NA,NA,NA,"DAB","ADPL",NA,NA,NA
"2019","District Council Election","First-past-the-post","Wong Tai Sin District","H10","LOK FU","樂富","H1001","摩士公園體育館","Morse Park Sports Centre","22.3383232, 114.1900554","22.3383232"," 114.1900554",3451,2764,NA,NA,NA,NA,"pro-establishment",NA,NA,NA,NA,"EAST KOWLOON  DISTRICT
RESIDENTS' COMMITTEE*",NA,NA,NA
"2019","District Council Election","First-past-the-post","Wong Tai Sin District","H11","WANG TAU HOM","橫頭磡","H1101","香港青年協會賽馬會橫頭磡青年空間","The Hong Kong Federation of Youth Groups Jockey Club Wang Tau Hom Youth S.P.O.T.","22.339938, 114.186469","22.339938"," 114.186469",2262,1702,NA,NA,NA,"pro-democracy","pro-establishment",NA,NA,NA,"CIVIC PARTY","DAB",NA,NA,NA
"2019","District Council Election","First-past-the-post","Wong Tai Sin District","H11","WANG TAU HOM","橫頭磡","H1102","香港傷殘青年協會賽馬會活動中心","Hong Kong Federation of Handicapped Youth Jockey Club Activity Center","22.3398618, 114.1890394","22.3398618"," 114.1890394",2256,1699,NA,NA,NA,"pro-democracy","pro-establishment",NA,NA,NA,"CIVIC PARTY","DAB",NA,NA,NA
"2019","District Council Election","First-past-the-post","Wong Tai Sin District","H12","TIN KEUNG","天強","H1201","天主教博智小學","Price Memorial Catholic Primary School","22.3440758, 114.1873781","22.3440758"," 114.1873781",1757,2853,NA,NA,NA,"pro-establishment","pro-democracy",NA,NA,NA,"LIBERAL PARTY","CIVIC PARTY",NA,NA,NA
"2019","District Council Election","First-past-the-post","Wong Tai Sin District","H12","TIN KEUNG","天強","H1202","潔心林炳炎中學","Kit Sam Lam Bing Yim Secondary School","22.3410659, 114.1854104","22.3410659"," 114.1854104",1318,1755,NA,NA,NA,"pro-establishment","pro-democracy",NA,NA,NA,"LIBERAL PARTY","CIVIC PARTY",NA,NA,NA
"2019","District Council Election","First-past-the-post","Wong Tai Sin District","H13","TSUI CHUK & PANG CHING","翠竹及鵬程","H1301","嗇色園主辦可德幼稚園","Ho Tak Kindergarten (Sponsored by Sik Sik Yuen)","22.345749, 114.191703","22.345749"," 114.191703",1639,1561,100,NA,NA,NA,NA,NA,NA,NA,NA,NA,NA,NA,NA
"2019","District Council Election","First-past-the-post","Wong Tai Sin District","H13","TSUI CHUK & PANG CHING","翠竹及鵬程","H1302","翠竹商場5樓","Level 5, Tsui Chuk Commercial Complex","22.3403049, 114.1846469","22.3403049"," 114.1846469",2448,2277,376,NA,NA,NA,NA,NA,NA,NA,NA,NA,NA,NA,NA
"2019","District Council Election","First-past-the-post","Wong Tai Sin District","H14","CHUK YUEN SOUTH","竹園南","H1401","竹園社區中心","Chuk Yuen Estate Community Centre","22.345014522409596, 114.19402775060571","22.345014522409596"," 114.19402775060571",1277,1995,NA,NA,NA,"pro-establishment","pro-democracy",NA,NA,NA,"FTU","ADPL",NA,NA,NA
"2019","District Council Election","First-past-the-post","Wong Tai Sin District","H14","CHUK YUEN SOUTH","竹園南","H1402","浸信會天虹小學","Baptist Rainbow Primary School","22.34468, 114.1897225","22.34468"," 114.1897225",1299,1843,NA,NA,NA,"pro-establishment","pro-democracy",NA,NA,NA,"FTU","ADPL",NA,NA,NA
"2019","District Council Election","First-past-the-post","Wong Tai Sin District","H15","CHUK YUEN NORTH","竹園北","H1501","竹園體育館","Chuk Yuen Sports Centre","22.3455273, 114.1935253","22.3455273"," 114.1935253",4221,3384,NA,NA,NA,"pro-democracy",NA,NA,NA,NA,"POWER FOR DEMOCRACY",NA,NA,NA,NA
"2019","District Council Election","First-past-the-post","Wong Tai Sin District","H16","TSZ WAN WEST","慈雲西","H1601","嗇色園主辦可立小學","Ho Lap Primary School (Sponsored by Sik Sik Yuen)","22.347178, 114.1984894","22.347178"," 114.1984894",5010,3642,NA,NA,NA,"pro-democracy","pro-establishment",NA,NA,NA,"THE DEMOCRATIC PARTY","DAB",NA,NA,NA
"2019","District Council Election","First-past-the-post","Wong Tai Sin District","H17","CHING OI","正愛","H1701","肖霞幼稚園","Chiu Ha Kindergarten","22.351353, 114.199291","22.351353"," 114.199291",5764,3670,NA,NA,NA,"pro-democracy","pro-establishment",NA,NA,NA,"TSZ WAN SHAN
CONSTRUCTIVE POWER*","DAB",NA,NA,NA
"2019","District Council Election","First-past-the-post","Wong Tai Sin District","H18","CHING ON","正安","H1801","慈雲山聖文德天主教小學","TWS St. Bonaventure Catholic Primary School","22.3497243, 114.2034499","22.3497243"," 114.2034499",2584,5862,NA,NA,NA,"pro-establishment","pro-democracy",NA,NA,NA,"FTU","POWER FOR DEMOCRACY",NA,NA,NA
"2019","District Council Election","First-past-the-post","Wong Tai Sin District","H19","TSZ WAN EAST","慈雲東","H1901","德愛中學","Tak Oi Secondary School","22.347494, 114.204371","22.347494"," 114.204371",3624,4709,NA,NA,NA,"pro-establishment","pro-democracy",NA,NA,NA,"DAB","POWER FOR DEMOCRACY",NA,NA,NA
"2019","District Council Election","First-past-the-post","Wong Tai Sin District","H20","KING FU","瓊富","H2001","香港海事青年團","Hong Kong Sea Cadet Corps","22.343489487456086, 114.20861047546123","22.343489487456086"," 114.20861047546123",3355,2314,NA,NA,NA,"pro-democracy","pro-establishment",NA,NA,NA,"THE DEMOCRATIC PARTY","FTU",NA,NA,NA
"2019","District Council Election","First-past-the-post","Wong Tai Sin District","H20","KING FU","瓊富","H2002","嗇色園主辦可富耆英鄰舍中心","Ho Fu Neighbourhood Centre for Senior Citizens (Sponsored by Sik Sik Yuen)","22.3423466, 114.2090122","22.3423466"," 114.2090122",2204,1589,NA,NA,NA,"pro-democracy","pro-establishment",NA,NA,NA,"THE DEMOCRATIC PARTY","FTU",NA,NA,NA
"2019","District Council Election","First-past-the-post","Wong Tai Sin District","H21","CHOI WAN EAST","彩雲東","H2101","基督教勵行會","Christian Action","22.3348909, 114.2163235","22.3348909"," 114.2163235",2773,2976,NA,NA,NA,"pro-establishment","pro-democracy",NA,NA,NA,"DAB","ADPL",NA,NA,NA
"2019","District Council Election","First-past-the-post","Wong Tai Sin District","H22","CHOI WAN SOUTH","彩雲南","H2201","香港幼稚園協會幼兒學校","Hong Kong Kindergarten Association Pre-School","22.333167, 114.213323","22.333167"," 114.213323",2414,3335,NA,NA,NA,"pro-establishment","pro-democracy",NA,NA,NA,"DAB","THE DEMOCRATIC PARTY",NA,NA,NA
"2019","District Council Election","First-past-the-post","Wong Tai Sin District","H23","CHOI WAN WEST","彩雲西","H2301","彩雲社區中心","Choi Wan Estate Community Centre","22.335011, 114.2137931","22.335011"," 114.2137931",3501,2936,NA,NA,NA,"pro-democracy","pro-establishment",NA,NA,NA,"THE DEMOCRATIC PARTY","FTU",NA,NA,NA
"2019","District Council Election","First-past-the-post","Wong Tai Sin District","H24","CHI CHOI","池彩","H2401","佛教孔仙洲紀念中學","Buddhist Hung Sean Chau Memorial College","22.3385556, 114.2082454","22.3385556"," 114.2082454",1784,2799,NA,NA,NA,"pro-establishment","pro-democracy",NA,NA,NA,"FTU","THE DEMOCRATIC PARTY",NA,NA,NA
"2019","District Council Election","First-past-the-post","Wong Tai Sin District","H24","CHI CHOI","池彩","H2402","中華基督教會基華小學","CCC Kei Wa Primary School","22.3360181, 114.2066061","22.3360181"," 114.2066061",1072,1256,NA,NA,NA,"pro-establishment","pro-democracy",NA,NA,NA,"FTU","THE DEMOCRATIC PARTY",NA,NA,NA
"2019","District Council Election","First-past-the-post","Wong Tai Sin District","H25","CHOI HUNG","彩虹","H2501","聖公會聖本德中學","SKH St. Benedict's School","22.335131, 114.205903","22.335131"," 114.205903",3523,3439,NA,NA,NA,"pro-democracy","pro-establishment",NA,NA,NA,"CHOI HUNG ESTATE SOCIAL
SERVICE ASSOCIATION","FTU",NA,NA,NA
"2019","District Council Election","First-past-the-post","Kwun Tong District","J01","KWUN TONG CENTRAL","觀塘中心","J0101","觀塘官立小學","Kwun Tong Government Primary School","22.316522, 114.217952","22.316522"," 114.217952",1237,1499,NA,NA,NA,NA,"pro-democracy",NA,NA,NA,NA,"THE DEMOCRATIC PARTY",NA,NA,NA
"2019","District Council Election","First-past-the-post","Kwun Tong District","J01","KWUN TONG CENTRAL","觀塘中心","J0102","觀塘社區中心","Kwun Tong Community Centre","22.3129104, 114.2296061","22.3129104"," 114.2296061",1008,1364,NA,NA,NA,NA,"pro-democracy",NA,NA,NA,NA,"THE DEMOCRATIC PARTY",NA,NA,NA
"2019","District Council Election","First-past-the-post","Kwun Tong District","J02","KOWLOON BAY","九龍灣","J0201","德福花園社區會堂","Telford Gardens Community Hall","22.3243965, 114.2125663","22.3243965"," 114.2125663",3454,557,1286,NA,NA,NA,NA,NA,NA,NA,NA,NA,NA,NA,NA
"2019","District Council Election","First-past-the-post","Kwun Tong District","J03","KAI YIP","啓業","J0301","啟業社區會堂","Kai Yip Community Hall","22.3283537, 114.2101182","22.3283537"," 114.2101182",2342,2464,NA,NA,NA,"pro-establishment","pro-democracy",NA,NA,NA,"DAB","THE DEMOCRATIC PARTY",NA,NA,NA
"2019","District Council Election","First-past-the-post","Kwun Tong District","J03","KAI YIP","啓業","J0302","佐敦谷聖若瑟天主教小學","Jordan Valley St. Joseph's Catholic Primary School","22.3287403, 114.2140434","22.3287403"," 114.2140434",1452,1969,NA,NA,NA,"pro-establishment","pro-democracy",NA,NA,NA,"DAB","THE DEMOCRATIC PARTY",NA,NA,NA
"2019","District Council Election","First-past-the-post","Kwun Tong District","J04","LAI CHING","麗晶","J0401","仁濟醫院羅陳楚思中學","Yan Chai Hospital Law Chan Chor Si College","22.3280663, 114.2080748","22.3280663"," 114.2080748",5364,2494,NA,NA,NA,"pro-democracy",NA,NA,NA,NA,"CIVIC PARTY",NA,NA,NA,NA
"2019","District Council Election","First-past-the-post","Kwun Tong District","J05","PING SHEK","坪石","J0501","坪石天主教小學","Ping Shek Estate Catholic Primary School","22.3341499, 114.2106012","22.3341499"," 114.2106012",2982,2849,NA,NA,NA,"pro-democracy","pro-establishment",NA,NA,NA,"THE DEMOCRATIC PARTY","DAB",NA,NA,NA
"2019","District Council Election","First-past-the-post","Kwun Tong District","J06","CHOI TAK","彩德","J0601","香港遊樂場協會彩德青少年綜合服務中心","Hong Kong Playground Association Choi Tak Integrated Service Centre for Children & Youth","22.3304199, 114.2122442","22.3304199"," 114.2122442",2882,2156,NA,NA,NA,"pro-establishment","pro-democracy",NA,NA,NA,"DAB","POWER FOR DEMOCRACY",NA,NA,NA
"2019","District Council Election","First-past-the-post","Kwun Tong District","J07","JORDAN VALLEY","佐敦谷","J0701","香港基督教服務處樂暉長者地區中心","Hong Kong Christian Service Bliss District Elderly Community Centre","22.3288377, 114.2167905","22.3288377"," 114.2167905",2390,2075,NA,NA,NA,"pro-establishment","pro-democracy",NA,NA,NA,"DAB","POWER FOR DEMOCRACY*",NA,NA,NA
"2019","District Council Election","First-past-the-post","Kwun Tong District","J07","JORDAN VALLEY","佐敦谷","J0702","天主教彩霞邨潔心幼稚園","Choi Ha Estate Kit Sam Kindergarten","22.325428, 114.21725","22.325428"," 114.21725",1304,1485,NA,NA,NA,"pro-establishment","pro-democracy",NA,NA,NA,"DAB","POWER FOR DEMOCRACY*",NA,NA,NA
"2019","District Council Election","First-past-the-post","Kwun Tong District","J08","SHUN TIN","順天","J0801","寧波第二中學","Ning Po No. 2 College","22.324605, 114.228273","22.324605"," 114.228273",3136,5123,NA,NA,NA,"pro-establishment","pro-democracy",NA,NA,NA,"DAB","THE DEMOCRATIC PARTY",NA,NA,NA
"2019","District Council Election","First-past-the-post","Kwun Tong District","J09","SHEUNG SHUN","雙順","J0901","順利社區中心","Shun Lee Estate Community Centre","22.331448, 114.227239","22.331448"," 114.227239",94,1224,789,NA,NA,NA,"pro-democracy",NA,NA,NA,NA,"ADPL",NA,NA,NA
"2019","District Council Election","First-past-the-post","Kwun Tong District","J09","SHEUNG SHUN","雙順","J0902","中華基督教會基順學校","CCC Kei Shun Special School","22.3328917, 114.2235111","22.3328917"," 114.2235111",855,1782,3411,NA,NA,NA,"pro-democracy",NA,NA,NA,NA,"ADPL",NA,NA,NA
"2019","District Council Election","First-past-the-post","Kwun Tong District","J10","ON LEE","安利","J1001","迦密梁省德學校","Carmel Leung Sing Tak School","22.328257, 114.225388","22.328257"," 114.225388",3041,2067,NA,NA,NA,NA,"pro-establishment",NA,NA,NA,NA,"DAB",NA,NA,NA
"2019","District Council Election","First-past-the-post","Kwun Tong District","J10","ON LEE","安利","J1002","基督教勵行會羅桂祥安泰服務中心","Christian Action Lo Kwee Seong On Tai Service Centre","22.328460178765024, 114.22829968857997","22.328460178765024"," 114.22829968857997",646,637,NA,NA,NA,NA,"pro-establishment",NA,NA,NA,NA,"DAB",NA,NA,NA
"2019","District Council Election","First-past-the-post","Kwun Tong District","J11","KWUN TONG ON TAI","觀塘安泰","J1101","光愛樂幼稚園(安泰)","Light and Love Home Happy Kindergarten (On Tai)","22.327185, 114.228105","22.327185"," 114.228105",2241,2901,NA,NA,NA,"pro-democracy","pro-establishment",NA,NA,NA,"THE DEMOCRATIC PARTY","FEDERATION OF PUBLIC
HOUSING ESTATES",NA,NA,NA
"2019","District Council Election","First-past-the-post","Kwun Tong District","J12","SAU MAU PING NORTH","秀茂坪北","J1201","基督教聖約教會堅樂小學","The Mission Covenant Church Holm Glad Primary School","22.3207588, 114.2316882","22.3207588"," 114.2316882",3993,3564,NA,NA,NA,NA,NA,NA,NA,NA,NA,NA,NA,NA,NA
"2019","District Council Election","First-past-the-post","Kwun Tong District","J13","SAU MAU PING CENTRAL","秀茂坪中","J1301","秀明小學","Sau Ming Primary School","22.319442, 114.232881","22.319442"," 114.232881",3358,3422,NA,NA,NA,NA,"pro-establishment",NA,NA,NA,NA,"DAB",NA,NA,NA
"2019","District Council Election","First-past-the-post","Kwun Tong District","J13","SAU MAU PING CENTRAL","秀茂坪中","J1302","竹園區神召會好鄰舍家庭中心","Pentecostal Church of Hong Kong Good Neighbour Family Centre","22.3214284, 114.2333752","22.3214284"," 114.2333752",514,754,NA,NA,NA,NA,"pro-establishment",NA,NA,NA,NA,"DAB",NA,NA,NA
"2019","District Council Election","First-past-the-post","Kwun Tong District","J14","ON TAT","安達","J1401","聖公會聖約翰曾肇添小學","SKH St. John's Tsang Shiu Tim Primary School","22.3196989, 114.2367417","22.3196989"," 114.2367417",38,43,2393,3499,NA,NA,NA,NA,"pro-establishment",NA,NA,NA,NA,"DAB",NA
"2019","District Council Election","First-past-the-post","Kwun Tong District","J15","SAU MAU PING SOUTH","秀茂坪南","J1501","觀塘官立小學(秀明道)","Kwun Tong Government Primary School (Sau Ming Road)","22.315068, 114.233927","22.315068"," 114.233927",2328,2970,NA,NA,NA,NA,NA,NA,NA,NA,NA,NA,NA,NA,NA
"2019","District Council Election","First-past-the-post","Kwun Tong District","J15","SAU MAU PING SOUTH","秀茂坪南","J1502","中華傳道會基石堂 ","CNEC Kei Shek Church","22.3174547, 114.2311088","22.3174547"," 114.2311088",1383,1007,NA,NA,NA,NA,NA,NA,NA,NA,NA,NA,NA,NA,NA
"2019","District Council Election","First-past-the-post","Kwun Tong District","J16","PO TAT","寶達","J1601","秀茂坪天主教小學","Sau Mau Ping Catholic Primary School","22.317542, 114.23708","22.317542"," 114.23708",4311,3946,NA,NA,NA,NA,"pro-establishment",NA,NA,NA,NA,"DAB",NA,NA,NA
"2019","District Council Election","First-past-the-post","Kwun Tong District","J17","KWONG TAK","廣德","J1701","藍田(東區)社區會堂","Lam Tin (East)Community Hall","22.308388, 114.239495","22.308388"," 114.239495",2720,2759,NA,NA,NA,"pro-establishment","pro-democracy",NA,NA,NA,"DAB*","PEOPLE POWER",NA,NA,NA
"2019","District Council Election","First-past-the-post","Kwun Tong District","J17","KWONG TAK","廣德","J1702","藍田(南)體育館","Lam Tin (South)Sports Centre","22.3038534, 114.2388532","22.3038534"," 114.2388532",1794,1568,NA,NA,NA,"pro-establishment","pro-democracy",NA,NA,NA,"DAB*","PEOPLE POWER",NA,NA,NA
"2019","District Council Election","First-past-the-post","Kwun Tong District","J18","HING TIN","興田","J1801","聖愛德華天主教小學","St. Edward's Catholic Primary School","22.3115807, 114.2376026","22.3115807"," 114.2376026",4751,3417,NA,NA,NA,"pro-democracy","pro-establishment",NA,NA,NA,"THE DEMOCRATIC PARTY","FTU",NA,NA,NA
"2019","District Council Election","First-past-the-post","Kwun Tong District","J19","LAM TIN","藍田","J1901","聖公會德田李兆強小學","SKH Tak Tin Lee Shiu Keung Primary School","22.310958, 114.236894","22.310958"," 114.236894",1650,1315,NA,NA,NA,"pro-establishment",NA,NA,NA,NA,"FTU",NA,NA,NA,NA
"2019","District Council Election","First-past-the-post","Kwun Tong District","J19","LAM TIN","藍田","J1902","飛雁幼稚園","Fei Ngan Kindergarten","22.31035, 114.234519","22.31035"," 114.234519",2430,2715,NA,NA,NA,"pro-establishment",NA,NA,NA,NA,"FTU",NA,NA,NA,NA
"2019","District Council Election","First-past-the-post","Kwun Tong District","J20","PING TIN","平田","J2001","聖公會李兆強小學","SKH Lee Shiu Keung Primary School","22.3067854, 114.2371321","22.3067854"," 114.2371321",4490,4012,NA,NA,NA,NA,NA,NA,NA,NA,NA,NA,NA,NA,NA
"2019","District Council Election","First-past-the-post","Kwun Tong District","J21","PAK NGA","栢雅","J2101","聖公會慈光堂聖匠幼稚園","SKH Kindly Light Church Holy Carpenter Kindergarten","22.302501, 114.2391302","22.302501"," 114.2391302",3066,138,3825,NA,NA,"pro-establishment",NA,"pro-democracy",NA,NA,"FTU",NA,"THE DEMOCRATIC PARTY",NA,NA
"2019","District Council Election","First-past-the-post","Kwun Tong District","J22","CHUN CHEUNG","俊翔","J2201","保良局方王錦全幼稚園","PLK Mrs Fong Wong Kam Chuen Kindergarten","22.2985195, 114.2416967","22.2985195"," 114.2416967",934,1789,NA,NA,NA,"pro-establishment",NA,NA,NA,NA,"FTU",NA,NA,NA,NA
"2019","District Council Election","First-past-the-post","Kwun Tong District","J22","CHUN CHEUNG","俊翔","J2202","香港中國婦女會李樹培夫人啟知中心","Hong Kong Chinese Women's Club Dr. Ellen Li Learning Centre","22.2967836, 114.2399402","22.2967836"," 114.2399402",1787,2691,NA,NA,NA,"pro-establishment",NA,NA,NA,NA,"FTU",NA,NA,NA,NA
"2019","District Council Election","First-past-the-post","Kwun Tong District","J23","YAU TONG EAST","油塘東","J2301","油塘社區會堂","Yau Tong Community Hall","22.295658, 114.239112","22.295658"," 114.239112",2997,2972,NA,NA,NA,NA,"pro-establishment",NA,NA,NA,NA,"DAB",NA,NA,NA
"2019","District Council Election","First-past-the-post","Kwun Tong District","J24","YAU CHUI","油翠","J2401","福建中學附屬學校","Fukien Secondary School Affiliated School","22.3003301, 114.2375561","22.3003301"," 114.2375561",68,2572,605,2857,NA,"pro-democracy","pro-democracy",NA,"pro-establishment",NA,"PEOPLE POWER","POWER FOR DEMOCRACY*",NA,"FEDERATION OF PUBLIC
HOUSING ESTATES",NA
"2019","District Council Election","First-past-the-post","Kwun Tong District","J25","YAU LAI","油麗","J2501","聖公會油塘基顯小學","S.K.H.Yautong Kei Hin Primary School","22.30007, 114.235297","22.30007"," 114.235297",3070,2530,NA,NA,NA,NA,NA,NA,NA,NA,NA,NA,NA,NA,NA
"2019","District Council Election","First-past-the-post","Kwun Tong District","J26","YAU TONG WEST","油塘西","J2601","天主教普照中學","Po Chiu Catholic Secondary School","22.2982524, 114.237989","22.2982524"," 114.237989",3388,3042,NA,NA,NA,NA,NA,NA,NA,NA,NA,NA,NA,NA,NA
"2019","District Council Election","First-past-the-post","Kwun Tong District","J26","YAU TONG WEST","油塘西","J2602","鯉魚門體育館","Lei Yue Mun Sports Centre","22.2921844, 114.238738","22.2921844"," 114.238738",465,499,NA,NA,NA,NA,NA,NA,NA,NA,NA,NA,NA,NA,NA
"2019","District Council Election","First-past-the-post","Kwun Tong District","J27","LAGUNA CITY","麗港城","J2701","茜草灣鄰里社區中心","Sai Tso Wan Neighbourhood Community Centre","22.3072061, 114.2289263","22.3072061"," 114.2289263",3951,6450,NA,NA,NA,NA,"pro-democracy",NA,NA,NA,NA,"CIVIC PARTY",NA,NA,NA
"2019","District Council Election","First-past-the-post","Kwun Tong District","J28","KING TIN","景田","J2801","五邑司徒浩中學","FDBWA Szeto Ho Secondary School","22.3063606, 114.2351026","22.3063606"," 114.2351026",3518,5638,NA,NA,NA,NA,"pro-democracy",NA,NA,NA,NA,"CIVIC PARTY",NA,NA,NA
"2019","District Council Election","First-past-the-post","Kwun Tong District","J29","TSUI PING","翠屏","J2901","天主教佑華小學","Our Lady Of China Catholic Primary School","22.3130464, 114.23052","22.3130464"," 114.23052",3822,4203,NA,NA,NA,"pro-establishment","pro-democracy",NA,NA,NA,"FEDERATION OF PUBLIC
HOUSING ESTATES","THE DEMOCRATIC PARTY",NA,NA,NA
"2019","District Council Election","First-past-the-post","Kwun Tong District","J30","HIU LAI","曉麗","J3001","路德會陳蒙恩幼稚園","Chan Mung Yan Lutheran Kindergarten","22.3201854, 114.2298086","22.3201854"," 114.2298086",3140,2001,NA,NA,NA,NA,NA,NA,NA,NA,NA,NA,NA,NA,NA
"2019","District Council Election","First-past-the-post","Kwun Tong District","J30","HIU LAI","曉麗","J3002","宣道會秀茂坪陳李詠貞幼稚園","CASMP Chen Lee Wing Tsing Kindergarten","22.3218002, 114.2287163","22.3218002"," 114.2287163",2330,1643,NA,NA,NA,NA,NA,NA,NA,NA,NA,NA,NA,NA,NA
"2019","District Council Election","First-past-the-post","Kwun Tong District","J31","PO LOK","寶樂","J3101","觀塘瑪利諾書院","Kwun Tong Maryknoll College","22.318546, 114.228252","22.318546"," 114.228252",2252,4070,NA,NA,NA,"pro-establishment","pro-democracy",NA,NA,NA,"FEDERATION OF PUBLIC
HOUSING ESTATES","THE DEMOCRATIC PARTY",NA,NA,NA
"2019","District Council Election","First-past-the-post","Kwun Tong District","J32","YUET WAH","月華","J3201","地利亞(加拿大)學校 - 東九龍","Delia School of Canada (Kowloon East)","22.3141157, 114.2269755","22.3141157"," 114.2269755",2557,2969,NA,NA,NA,NA,"pro-democracy",NA,NA,NA,NA,"POWER FOR DEMOCRACY",NA,NA,NA
"2019","District Council Election","First-past-the-post","Kwun Tong District","J33","HIP HONG","協康","J3301","瑞和街體育館","Shui Wo Street Sports Centre","22.3154451, 114.2243285","22.3154451"," 114.2243285",1346,1367,NA,NA,NA,NA,"pro-democracy",NA,NA,NA,NA,"POWER FOR DEMOCRACY",NA,NA,NA
"2019","District Council Election","First-past-the-post","Kwun Tong District","J33","HIP HONG","協康","J3302","曉光街體育館","Hiu Kwong Street Sports Centre","22.3196477, 114.2278189","22.3196477"," 114.2278189",983,1245,NA,NA,NA,NA,"pro-democracy",NA,NA,NA,NA,"POWER FOR DEMOCRACY",NA,NA,NA
"2019","District Council Election","First-past-the-post","Kwun Tong District","J34","LOK WAH SOUTH","樂華南","J3401","樂華社區中心","Lok Wah Estate Community Centre","22.3205314, 114.222657","22.3205314"," 114.222657",2774,2856,NA,NA,NA,"pro-establishment",NA,NA,NA,NA,"FTU",NA,NA,NA,NA
"2019","District Council Election","First-past-the-post","Kwun Tong District","J35","LOK WAH NORTH","樂華北","J3501","聖公會基樂小學","SKH Kei Lok Primary School","22.320294, 114.219986","22.320294"," 114.219986",3628,2346,NA,NA,NA,NA,"pro-establishment",NA,NA,NA,NA,"FTU",NA,NA,NA
"2019","District Council Election","First-past-the-post","Kwun Tong District","J36","HONG LOK","康樂","J3601","觀塘功樂官立中學","Kwun Tong Kung Lok Government Secondary School","22.318236, 114.222406","22.318236"," 114.222406",3231,2359,NA,NA,NA,"pro-democracy",NA,NA,NA,NA,"POWER FOR DEMOCRACY",NA,NA,NA,NA
"2019","District Council Election","First-past-the-post","Kwun Tong District","J37","TING ON","定安","J3701","聖公會基顯小學","SKH Kei Hin Primary School","22.318025, 114.217289","22.318025"," 114.217289",2752,3522,NA,NA,NA,NA,"pro-democracy",NA,NA,NA,NA,"THE DEMOCRATIC PARTY",NA,NA,NA
"2019","District Council Election","First-past-the-post","Kwun Tong District","J38","UPPER NGAU TAU KOK ESTATE","牛頭角上邨","J3801","循道衛理觀塘社會服務處牛頭角青少年綜合服務中心","Kwun Tong Methodist Social Service Ngau Tau Kok Youth Integrated Service Centre","22.3197438, 114.2155053","22.3197438"," 114.2155053",3093,3247,NA,NA,NA,NA,NA,NA,NA,NA,NA,NA,NA,NA,NA
"2019","District Council Election","First-past-the-post","Kwun Tong District","J39","LOWER NGAU TAU KOK ESTATE","牛頭角下邨","J3901","振華道體育館","Chun Wah Road Sports Centre","22.3225958, 114.2205204","22.3225958"," 114.2205204",717,1051,NA,NA,NA,NA,NA,NA,NA,NA,NA,NA,NA,NA,NA
"2019","District Council Election","First-past-the-post","Kwun Tong District","J39","LOWER NGAU TAU KOK ESTATE","牛頭角下邨","J3902","保良局顧卞裘莉長者日間護理中心","PLK Koo Bin Kau Lee Day Care Centre for the Elderly","22.3221985, 114.2159696","22.3221985"," 114.2159696",2987,2911,NA,NA,NA,NA,NA,NA,NA,NA,NA,NA,NA,NA,NA
"2019","District Council Election","First-past-the-post","Kwun Tong District","J40","TO TAI","淘大","J4001","彩頤居禮堂","Cheerful Court Hall","22.325616, 114.2162716","22.325616"," 114.2162716",3940,2398,NA,NA,NA,"pro-democracy",NA,NA,NA,NA,"CIVIC PARTY",NA,NA,NA,NA
"2019","District Council Election","First-past-the-post","Tsuen Wan District","K01","TAK WAH","德華","K0101","雅麗珊社區中心","Princess Alexandra Community Centre","22.3716227, 114.1146724","22.3716227"," 114.1146724",1756,1964,NA,NA,NA,NA,"pro-democracy",NA,NA,NA,NA,"POWER FOR DEMOCRACY",NA,NA,NA
"2019","District Council Election","First-past-the-post","Tsuen Wan District","K02","YEUNG UK ROAD","楊屋道","K0201","荃灣天主教小學","Tsuen Wan Catholic Primary School","22.3691427, 114.1194857","22.3691427"," 114.1194857",2614,108,2788,NA,NA,"pro-establishment",NA,"pro-democracy",NA,NA,"DAB",NA,"TSUEN WAN COMMUNITY
NETWORK",NA,NA
"2019","District Council Election","First-past-the-post","Tsuen Wan District","K03","TSUEN WAN SOUTH","荃灣南","K0301","荃灣聖芳濟中學","St. Francis Xavier's School, Tsuen Wan","22.3686168, 114.1171042","22.3686168"," 114.1171042",1860,3261,880,NA,NA,"pro-establishment","pro-democracy","pro-establishment",NA,NA,"DAB","CIVIC PARTY","ROUNDTABLE",NA,NA
"2019","District Council Election","First-past-the-post","Tsuen Wan District","K04","HOI BUN","海濱","K0401","天主教石鐘山紀念小學","Shak Chung Shan Memorial Catholic Primary School","22.3637959, 114.1131396","22.3637959"," 114.1131396",1940,5113,22,1974,NA,NA,NA,"pro-democracy",NA,NA,NA,NA,"POWER FOR DEMOCRACY",NA,NA
"2019","District Council Election","First-past-the-post","Tsuen Wan District","K05","TSUEN WAN WEST","荃灣西","K0501","荃灣西約體育館","Tsuen Wan West Sports Centre","22.3705029, 114.1005636","22.3705029"," 114.1005636",4718,2910,NA,NA,NA,"pro-democracy","pro-establishment",NA,NA,NA,"THE DEMOCRATIC PARTY","DAB",NA,NA,NA
"2019","District Council Election","First-past-the-post","Tsuen Wan District","K06","CLAGUE GARDEN","祈德尊","K0601","寶安商會王少清中學","POCA Wong Siu Ching Secondary School","22.371201, 114.110242","22.371201"," 114.110242",2797,2730,NA,NA,NA,"pro-democracy","pro-establishment",NA,NA,NA,"POWER FOR DEMOCRACY","DAB",NA,NA,NA
"2019","District Council Election","First-past-the-post","Tsuen Wan District","K07","TSUEN WAN CENTRE","荃灣中心","K0701","柴灣角天主教小學","Chai Wan Kok Catholic Primary School","22.3780996, 114.1064656","22.3780996"," 114.1064656",3887,2479,NA,NA,NA,"pro-democracy","pro-establishment",NA,NA,NA,"DPHK","DAB",NA,NA,NA
"2019","District Council Election","First-past-the-post","Tsuen Wan District","K08","DISCOVERY PARK","愉景","K0801","荃景圍體育館","Tsuen King Circuit Sports Centre","22.3776065, 114.1113547","22.3776065"," 114.1113547",4498,3804,NA,NA,NA,"pro-democracy","pro-establishment",NA,NA,NA,"POWER FOR DEMOCRACY","ROUNDTABLE",NA,NA,NA
"2019","District Council Election","First-past-the-post","Tsuen Wan District","K09","FUK LOI","福來","K0901","荃灣潮州公學","Tsuen Wan Chiu Chow Public School","22.3723501, 114.1144425","22.3723501"," 114.1144425",226,2871,2351,NA,NA,NA,"pro-establishment","pro-democracy",NA,NA,NA,"FTU","THE DEMOCRATIC PARTY",NA,NA
"2019","District Council Election","First-past-the-post","Tsuen Wan District","K10","LUK YEUNG","綠楊","K1001","蕙荃體育館","Wai Tsuen Sports Centre","22.3721304, 114.1222438","22.3721304"," 114.1222438",3677,2810,NA,NA,NA,"pro-democracy",NA,NA,NA,NA,"NEO DEMOCRATS",NA,NA,NA,NA
"2019","District Council Election","First-past-the-post","Tsuen Wan District","K11","MA WAN","馬灣","K1101","中華基督教會基慧小學(馬灣)","CCC Kei Wai Primary School (Ma Wan)","22.3507043, 114.0598067","22.3507043"," 114.0598067",3538,1493,90,NA,NA,"pro-democracy",NA,NA,NA,NA,"NEO DEMOCRATS",NA,NA,NA,NA
"2019","District Council Election","First-past-the-post","Tsuen Wan District","K12","TSUEN WAN RURAL","荃灣郊區","K1201","圓玄學院荃灣西長者鄰舍中心","The Yuen Yuen Institute Tsuen Wan West Elderly Neighbourhood Centre","22.3679622, 114.061264","22.3679622"," 114.061264",1615,1502,548,NA,NA,"pro-democracy",NA,NA,NA,NA,"POWER FOR DEMOCRACY",NA,NA,NA,NA
"2019","District Council Election","First-past-the-post","Tsuen Wan District","K12","TSUEN WAN RURAL","荃灣郊區","K1202","澳仙納幼稚園舊址","Former Site of Oceanic English Kindergarten","22.36347844132781, 114.04645285780377","22.36347844132781"," 114.04645285780377",553,730,247,NA,NA,"pro-democracy",NA,NA,NA,NA,"POWER FOR DEMOCRACY",NA,NA,NA,NA
"2019","District Council Election","First-past-the-post","Tsuen Wan District","K12","TSUEN WAN RURAL","荃灣郊區","K1203","豪景花園遊樂會","Hongkong Garden Club Ltd.","22.3621089, 114.0424972","22.3621089"," 114.0424972",886,1177,426,NA,NA,"pro-democracy",NA,NA,NA,NA,"POWER FOR DEMOCRACY",NA,NA,NA,NA
"2019","District Council Election","First-past-the-post","Tsuen Wan District","K13","TING SHAM","汀深","K1301","深井天主教小學","Sham Tseng Catholic Primary School","22.367286, 114.060437","22.367286"," 114.060437",18,3489,2931,149,NA,NA,"pro-democracy","pro-establishment",NA,NA,NA,"POWER FOR DEMOCRACY","ROUNDTABLE",NA,NA
"2019","District Council Election","First-past-the-post","Tsuen Wan District","K14","LAI TO","麗濤","K1401","荃灣官立小學","Tsuen Wan Government Primary School","22.3718329, 114.1008764","22.3718329"," 114.1008764",3624,5098,NA,NA,NA,NA,"pro-democracy",NA,NA,NA,NA,"POWER FOR DEMOCRACY",NA,NA,NA
"2019","District Council Election","First-past-the-post","Tsuen Wan District","K15","ALLWAY","荃威","K1501","中華基督教會基慧小學","CCC Kei Wai Primary School","22.3791106, 114.1048217","22.3791106"," 114.1048217",3622,2612,NA,NA,NA,"pro-democracy",NA,NA,NA,NA,"LABOUR PARTY",NA,NA,NA,NA
"2019","District Council Election","First-past-the-post","Tsuen Wan District","K15","ALLWAY","荃威","K1502","川龍村公所","Chuen Lung Village Office","22.394715, 114.107482","22.394715"," 114.107482",822,834,NA,NA,NA,"pro-democracy",NA,NA,NA,NA,"LABOUR PARTY",NA,NA,NA,NA
"2019","District Council Election","First-past-the-post","Tsuen Wan District","K16","CHEUNG SHEK","象石","K1601","路德會呂明才中學","Lui Ming Choi Lutheran College","22.3780524, 114.1282115","22.3780524"," 114.1282115",1513,1272,NA,NA,NA,"pro-democracy","pro-establishment",NA,NA,NA,"THE DEMOCRATIC PARTY","DAB",NA,NA,NA
"2019","District Council Election","First-past-the-post","Tsuen Wan District","K16","CHEUNG SHEK","象石","K1602","博愛醫院歷屆總理聯誼會梁省德中學","AD&FD POHL Leung Sing Tak College","22.3760223, 114.1258407","22.3760223"," 114.1258407",1344,1115,NA,NA,NA,"pro-democracy","pro-establishment",NA,NA,NA,"THE DEMOCRATIC PARTY","DAB",NA,NA,NA
"2019","District Council Election","First-past-the-post","Tsuen Wan District","K17","SHEK WAI KOK","石圍角","K1701","香港道教聯合會圓玄學院石圍角小學","HKTA YYI Shek Wai Kok Primary School","22.374598, 114.1222587","22.374598"," 114.1222587",2464,2684,NA,NA,NA,"pro-democracy","pro-establishment",NA,NA,NA,"CIVIC PARTY","FEDERATION OF PUBLIC
HOUSING ESTATES",NA,NA,NA
"2019","District Council Election","First-past-the-post","Tsuen Wan District","K18","LEI MUK SHUE WEST","梨木樹西","K1801","梨木樹天主教小學","Lei Muk Shue Catholic Primary School","22.3778054, 114.1338631","22.3778054"," 114.1338631",2108,4129,NA,NA,NA,"pro-establishment","pro-democracy",NA,NA,NA,"FEDERATION OF PUBLIC
HOUSING ESTATES","CIVIC PARTY",NA,NA,NA
"2019","District Council Election","First-past-the-post","Tsuen Wan District","K19","LEI MUK SHUE EAST","梨木樹東","K1901","梨木樹社區會堂","Lei Muk Shue Community Hall","22.3790216, 114.1368614","22.3790216"," 114.1368614",1826,4070,NA,NA,NA,"pro-establishment","pro-democracy",NA,NA,NA,"DAB","CIVIC PARTY",NA,NA,NA
"2019","District Council Election","First-past-the-post","Tsuen Wan District","K19","LEI MUK SHUE EAST","梨木樹東","K1902","河背村村公所","Ho Pui Tsuen Village Office","22.371347, 114.126602","22.371347"," 114.126602",615,1144,NA,NA,NA,"pro-establishment","pro-democracy",NA,NA,NA,"DAB","CIVIC PARTY",NA,NA,NA
"2019","District Council Election","First-past-the-post","Tuen Mun District","L01","TUEN MUN TOWN CENTRE","屯門市中心","L0101","屯門大會堂展覽廳","Exhibition Gallery, Tuen Mun Town Hall","22.3917753, 113.9767599","22.3917753"," 113.9767599",3254,1830,NA,NA,NA,"pro-democracy",NA,NA,NA,NA,"THE DEMOCRATIC PARTY",NA,NA,NA,NA
"2019","District Council Election","First-past-the-post","Tuen Mun District","L01","TUEN MUN TOWN CENTRE","屯門市中心","L0102","青山天主教小學","Castle Peak Catholic Primary School","22.3948025, 113.97491","22.3948025"," 113.97491",907,594,NA,NA,NA,"pro-democracy",NA,NA,NA,NA,"THE DEMOCRATIC PARTY",NA,NA,NA,NA
"2019","District Council Election","First-past-the-post","Tuen Mun District","L02","SIU CHI","兆置","L0201","保良局香港道教聯合會圓玄小學","PLK HKTA Yuen Yuen Primary School","22.3866214, 113.9803177","22.3866214"," 113.9803177",1298,4704,NA,NA,NA,NA,"pro-democracy",NA,NA,NA,NA,"THE DEMOCRATIC PARTY",NA,NA,NA
"2019","District Council Election","First-past-the-post","Tuen Mun District","L02","SIU CHI","兆置","L0202","仁愛堂劉皇發夫人小學","Yan Oi Tong Madam Lau Wong Fat Primary School","22.3896689, 113.9772655","22.3896689"," 113.9772655",325,1094,NA,NA,NA,NA,"pro-democracy",NA,NA,NA,NA,"THE DEMOCRATIC PARTY",NA,NA,NA
"2019","District Council Election","First-past-the-post","Tuen Mun District","L03","ON TING","安定","L0301","安定/友愛社區中心","On Ting/Yau Oi Community Centre","22.3874546, 113.9764708","22.3874546"," 113.9764708",2345,2900,NA,NA,NA,"pro-establishment","pro-democracy",NA,NA,NA,"DAB*","ADPL",NA,NA,NA
"2019","District Council Election","First-past-the-post","Tuen Mun District","L03","ON TING","安定","L0302","聖公會青山聖彼得堂兆麟苑幼稚園","SKH St. Peter's Church Castle Peak Siu Lun Court Kindergarten","22.3841261, 113.9769005","22.3841261"," 113.9769005",968,1304,NA,NA,NA,"pro-establishment","pro-democracy",NA,NA,NA,"DAB*","ADPL",NA,NA,NA
"2019","District Council Election","First-past-the-post","Tuen Mun District","L04","SIU TSUI","兆翠","L0401","深培中學","Semple Memorial Secondary School","22.3843316, 113.977945","22.3843316"," 113.977945",1944,2676,NA,NA,NA,"pro-establishment","pro-democracy",NA,NA,NA,"DAB*","POWER FOR DEMOCRACY",NA,NA,NA
"2019","District Council Election","First-past-the-post","Tuen Mun District","L04","SIU TSUI","兆翠","L0402","青松侯寶垣中學","Ching Chung Hau Po Woon Secondary School","22.3827083, 113.9724187","22.3827083"," 113.9724187",2280,3093,NA,NA,NA,"pro-establishment","pro-democracy",NA,NA,NA,"DAB*","POWER FOR DEMOCRACY",NA,NA,NA
"2019","District Council Election","First-past-the-post","Tuen Mun District","L05","YAU OI SOUTH","友愛南","L0501","順德聯誼總會譚伯羽中學","STFA Tam Pak Yu College","22.3874893, 113.9724888","22.3874893"," 113.9724888",3954,2279,NA,NA,NA,"pro-democracy","pro-establishment",NA,NA,NA,"LABOUR PARTY","DAB*",NA,NA,NA
"2019","District Council Election","First-past-the-post","Tuen Mun District","L06","YAU OI NORTH","友愛北","L0601","伊斯蘭學校","Islamic Primary School","22.3887675, 113.9723346","22.3887675"," 113.9723346",2959,1837,NA,NA,NA,"pro-democracy","pro-establishment",NA,NA,NA,"LABOUR PARTY","DAB*",NA,NA,NA
"2019","District Council Election","First-past-the-post","Tuen Mun District","L06","YAU OI NORTH","友愛北","L0602","仁濟醫院何式南小學","YCH Ho Sik Nam Primary School","22.3849924, 113.9717682","22.3849924"," 113.9717682",1115,508,NA,NA,NA,"pro-democracy","pro-establishment",NA,NA,NA,"LABOUR PARTY","DAB*",NA,NA,NA
"2019","District Council Election","First-past-the-post","Tuen Mun District","L07","TSUI HING","翠興","L0701","馬錦明慈善基金馬可賓紀念中學","Stewards MKMCF Ma Ko Pan Memorial College","22.4010359, 113.9739228","22.4010359"," 113.9739228",4662,3028,NA,NA,NA,"pro-democracy","pro-establishment",NA,NA,NA,"TUEN MUN COMMUNITY
NETWORK","ROUNDTABLE",NA,NA,NA
"2019","District Council Election","First-past-the-post","Tuen Mun District","L08","SHAN KING","山景","L0801","山景社區會堂","Shan King Community Hall","22.396309, 113.965504","22.396309"," 113.965504",2653,4780,NA,NA,NA,NA,"pro-democracy",NA,NA,NA,NA,"TUEN MUN COMMUNITY
NETWORK",NA,NA,NA
"2019","District Council Election","First-past-the-post","Tuen Mun District","L09","KING HING","景興","L0901","大興社區會堂","Tai Hing Community Hall","22.402564, 113.970043","22.402564"," 113.970043",76,1876,2184,NA,NA,NA,"pro-democracy","pro-establishment",NA,NA,NA,"TUEN MUN COMMUNITY
NETWORK","FTU",NA,NA
"2019","District Council Election","First-past-the-post","Tuen Mun District","L09","KING HING","景興","L0902","仁愛堂陳黃淑芳紀念中學","Yan Oi Tong Chan Wong Suk Fong Memorial Secondary School","22.4021458, 113.9668486","22.4021458"," 113.9668486",29,880,709,NA,NA,NA,"pro-democracy","pro-establishment",NA,NA,NA,"TUEN MUN COMMUNITY
NETWORK","FTU",NA,NA
"2019","District Council Election","First-past-the-post","Tuen Mun District","L10","HING TSAK","興澤","L1001","大興體育館","Tai Hing Sports Centre","22.4032655, 113.9732551","22.4032655"," 113.9732551",3815,3390,NA,NA,NA,"pro-democracy","pro-establishment",NA,NA,NA,"TUEN MUN COMMUNITY
NETWORK","FTU",NA,NA,NA
"2019","District Council Election","First-past-the-post","Tuen Mun District","L11","SAN HUI","新墟","L1101","聖公會聖西門呂明才中學","SKH St. Simon's Lui Ming Choi Secondary School","22.3972786, 113.9744167","22.3972786"," 113.9744167",1230,766,NA,NA,NA,"pro-democracy",NA,NA,NA,NA,"POWER FOR DEMOCRACY",NA,NA,NA,NA
"2019","District Council Election","First-past-the-post","Tuen Mun District","L11","SAN HUI","新墟","L1102","井財街社區會堂","Tseng Choi Street Community Hall","22.4002024, 113.9774834","22.4002024"," 113.9774834",2046,1374,NA,NA,NA,"pro-democracy",NA,NA,NA,NA,"POWER FOR DEMOCRACY",NA,NA,NA,NA
"2019","District Council Election","First-past-the-post","Tuen Mun District","L12","SO KWUN WAT","掃管笏","L1201","博愛醫院歷屆總理聯誼會鄭任安夫人千禧小學","A.D. & F.D. of Pok Oi Hospital Mrs. Cheng Yam On Millennium School","22.3720224, 114.0040226","22.3720224"," 114.0040226",982,466,1648,NA,NA,"pro-establishment","pro-establishment","pro-democracy",NA,NA,"NEW PEOPLE'S PARTY","ROUNDTABLE","THE DEMOCRATIC PARTY",NA,NA
"2019","District Council Election","First-past-the-post","Tuen Mun District","L13","SAM SHING","三聖","L1301","救世軍三聖邨劉伍英學校","The Salvation Army Sam Shing Chuen Lau Ng Ying School","22.381363, 113.978776","22.381363"," 113.978776",1536,1250,NA,NA,NA,NA,"pro-establishment",NA,NA,NA,NA,"NEW PEOPLE'S PARTY",NA,NA,NA
"2019","District Council Election","First-past-the-post","Tuen Mun District","L13","SAM SHING","三聖","L1302","和富慈善基金李宗德博士全人發展教育中心","Wofoo Foundation Dr Joseph Lee Whole Person Development Education Centre","22.3601692, 114.0187884","22.3601692"," 114.0187884",1298,948,NA,NA,NA,NA,"pro-establishment",NA,NA,NA,NA,"NEW PEOPLE'S PARTY",NA,NA,NA
"2019","District Council Election","First-past-the-post","Tuen Mun District","L14","HANFORD","恒褔","L1401","鐘聲慈善社胡陳金枝中學","Chung Sing Benevolent Society Mrs Aw Boon Haw Secondary School","22.3839447, 113.9784591","22.3839447"," 113.9784591",1311,537,NA,NA,NA,"pro-democracy",NA,NA,NA,NA,"THE DEMOCRATIC PARTY",NA,NA,NA,NA
"2019","District Council Election","First-past-the-post","Tuen Mun District","L14","HANFORD","恒褔","L1402","入境事務學院","Immigration Service Institute of Training and Development","22.3760519, 113.9862186","22.3760519"," 113.9862186",1465,836,NA,NA,NA,"pro-democracy",NA,NA,NA,NA,"THE DEMOCRATIC PARTY",NA,NA,NA,NA
"2019","District Council Election","First-past-the-post","Tuen Mun District","L14","HANFORD","恒褔","L1403","保良局西區婦女福利會馮李佩瑤小學","PLK Women's Welfare Club Western District Fung Lee Pui Yiu Primary School","22.3737208, 113.9954013","22.3737208"," 113.9954013",1081,608,NA,NA,NA,"pro-democracy",NA,NA,NA,NA,"THE DEMOCRATIC PARTY",NA,NA,NA,NA
"2019","District Council Election","First-past-the-post","Tuen Mun District","L15","YUET WU","悅湖","L1501","南屯門官立中學","South Tuen Mun Government Secondary School","22.373355, 113.9691795","22.373355"," 113.9691795",141,2415,4419,NA,NA,NA,"pro-establishment","pro-democracy",NA,NA,NA,"DAB","ADPL",NA,NA
"2019","District Council Election","First-past-the-post","Tuen Mun District","L16","SIU HEI","兆禧","L1601","世界龍岡學校劉德容紀念小學","LKWFS Lau Tak Yung Memorial Primary School","22.3730879, 113.9684263","22.3730879"," 113.9684263",3934,1808,NA,NA,NA,"pro-democracy","pro-establishment",NA,NA,NA,"ADPL","DAB*",NA,NA,NA
"2019","District Council Election","First-past-the-post","Tuen Mun District","L17","WU KING","湖景","L1701","東華三院辛亥年總理中學","TWGHs Sun Hoi Directors' College","22.3753238, 113.9654521","22.3753238"," 113.9654521",3724,1766,NA,NA,NA,"pro-democracy","pro-establishment",NA,NA,NA,"ADPL","DAB*",NA,NA,NA
"2019","District Council Election","First-past-the-post","Tuen Mun District","L18","BUTTERFLY","蝴蝶","L1801","五邑鄒振猷學校","FDBWA Chow Chin Yau School","22.3779986, 113.9629952","22.3779986"," 113.9629952",1835,951,NA,NA,NA,"pro-democracy","pro-establishment",NA,NA,NA,"ADPL*","DAB*",NA,NA,NA
"2019","District Council Election","First-past-the-post","Tuen Mun District","L18","BUTTERFLY","蝴蝶","L1802","蝴蝶灣社區中心","Butterfly Bay Community Centre","22.3747815, 113.962056","22.3747815"," 113.962056",2444,1858,NA,NA,NA,"pro-democracy","pro-establishment",NA,NA,NA,"ADPL*","DAB*",NA,NA,NA
"2019","District Council Election","First-past-the-post","Tuen Mun District","L19","FU SUN","富新","L1901","新屯門中心社區中心","Community Centre of Sun Tuen Mun Centre","22.3812677, 113.9643338","22.3812677"," 113.9643338",2632,1701,NA,NA,NA,NA,"pro-establishment",NA,NA,NA,NA,"NEW PEOPLE'S PARTY",NA,NA,NA
"2019","District Council Election","First-past-the-post","Tuen Mun District","L19","FU SUN","富新","L1902","珈琳中英文幼稚園(龍門居分校)","Karlam Anglo-Chinese Kindergarten (Oasis Garden)","22.3852826, 113.9660531","22.3852826"," 113.9660531",2854,1898,NA,NA,NA,NA,"pro-establishment",NA,NA,NA,NA,"NEW PEOPLE'S PARTY",NA,NA,NA
"2019","District Council Election","First-past-the-post","Tuen Mun District","L20","LOK TSUI","樂翠","L2001","香港路德會增城兆霖學校","Lutheran Tsang Shing Siu Leun School","22.3754633, 113.9614458","22.3754633"," 113.9614458",2278,3474,49,NA,NA,NA,"pro-democracy",NA,NA,NA,NA,"THE DEMOCRATIC PARTY",NA,NA,NA
"2019","District Council Election","First-past-the-post","Tuen Mun District","L20","LOK TSUI","樂翠","L2002","龍鼓灘村公所","Lung Kwu Tan Village Office","22.3904334, 113.9198946","22.3904334"," 113.9198946",348,365,7,NA,NA,NA,"pro-democracy",NA,NA,NA,NA,"THE DEMOCRATIC PARTY",NA,NA,NA
"2019","District Council Election","First-past-the-post","Tuen Mun District","L21","LUNG MUN","龍門","L2101","龍逸社區會堂","Lung Yat Community Hall","22.3863109, 113.9680219","22.3863109"," 113.9680219",4111,2680,NA,NA,NA,NA,"pro-establishment",NA,NA,NA,NA,"DAB*",NA,NA,NA
